id,name,latitude,longitude,elevation
01025,TROMSOE,69.68,18.92,10.0
01089,KIRKENES,69.73,29.9,91.0
01210,ALESUND AIRP,62.57,6.12,22.0
02226,FROSON,63.2,14.5,376.0
02355,KUGGOEREN AMOS,61.7,17.52,9.0
02807,IVALO,68.62,27.42,147.0
02869,KUUSAMO,65.97,29.18,262.0
02917,KUOPIO,63.02,27.8,98.0
02947,MIKKELI,61.73,27.3,138.0
04063,AKUREYRI,65.68,-18.08,23.0
04270,NARSARSUAQ,61.15,-45.43,4.0
04361,KULUSUK,65.57,-37.13,35.0
08515,SANTA MARIA,36.97,-25.17,100.0
17096,ERZURUM,39.92,41.27,1756.0
22113,MURMANSK,68.97,33.05,51.0
22820,PETROSK,61.82,34.27,110.0
23631,BEREZOVO,63.93,65.05,32.0
24125,OLENEK,68.5,112.43,220.0
27051,TOTMA,59.88,42.75,134.0
27612,MOSKAU,55.75,37.57,156.0
28076,DEMJANSKOE,59.6,69.28,57.0
28722,UFA,54.72,55.83,104.0
29838,BARNAUL,53.43,83.52,184.0
30521,ZHIGALOVO,54.8,105.22,426.0
31088,OKHOTSK,59.37,143.2,6.0
31960,VLADIVOSTOK,43.12,131.9,138.0
32389,KLJUCHI,56.32,160.83,29.0
34152,BALASHOV,51.55,43.15,154.0
34880,ASTRAHAN,46.28,48.05,-23.0
35229,AKTJUBINSK,50.28,57.15,219.0
36870,ALMA-ATA,43.23,76.93,847.0
37864,BAKU/BINA,40.45,50.07,-6.0
38545,DARGANATA,40.47,62.28,143.0
38927,TERMEZ,37.23,67.27,310.0
40362,RAFHA,29.62,43.48,449.0
40437,RIAD INT.AIRPORT,24.93,46.72,614.0
40745,MASHHAD,36.27,59.63,989.0
40766,KERMANSHAH,34.27,47.12,1320.0
40835,GACH SARAN DU GUNBA.,30.43,50.77,699.0
41024,JEDDAH/KING ABDUL,21.7,39.18,15.0
41194,DUBAI,25.25,55.33,8.0
41242,DIBBA,25.62,56.25,20.0
41254,SAIQ,23.07,57.65,1755.0
41258,QABOOS PORT,23.63,58.57,4.0
41265,IBRA,22.73,58.52,469.0
41304,MARMUL,18.13,55.18,273.0
41316,SALALAH,17.03,54.08,20.0
41696,KALAT,29.03,66.58,2015.0
41950,BARISAL,22.75,90.37,4.0
42348,JAIPUR/SANGANER,26.82,75.8,385.0
43003,BOMBAY AIRPORT,19.12,72.85,8.0
43450,KATUNAYAKE,7.17,79.88,8.0
43599,GAN,-0.68,73.15,2.0
44438,BHAIRAWA AIRPORT,27.52,83.45,109.0
47008,CHONGJIN,41.78,129.82,42.0
47055,WONSAN,39.18,127.43,35.0
47106,TONGHAE/RADAR,37.5,129.13,40.0
47133,TAEJON,36.3,127.4,77.0
47146,CHONJU,35.82,127.15,54.0
47407,ASAHIKAWA,43.77,142.37,116.0
47584,MORIOKA,39.7,141.17,155.0
47662,TOKYO NARITA,35.68,139.77,5.0
47807,FUKUOKA,33.58,130.38,3.0
47893,KOCHI,33.57,133.55,1.0
48097,YANGON,16.77,96.17,14.0
48456,BANGKOK/DON MUANG,13.92,100.6,4.0
48564,PHUKET,7.88,98.4,2.0
48647,KUALA LUMPUR,3.12,101.55,27.0
48930,LUANG-PRABANG,19.88,102.13,305.0
50854,ANDA,46.38,125.32,150.0
51730,ALAR,40.5,81.05,1013.0
52495,BAYAN MOD,40.75,104.5,1329.0
53698,SHIJIAZHUANG,38.25,114.42,81.0
54218,CHIFENG,42.27,118.97,572.0
54471,YINGKOU,40.67,122.2,4.0
54662,DALIAN,38.9,121.63,97.0
54857,QUINGDAO,36.07,120.33,77.0
56187,WENJIANG,30.7,103.83,541.0
57025,FENGXIANG,34.52,107.42,781.0
57461,YICHANG,30.7,111.3,134.0
57662,CHANGDE,29.05,111.68,35.0
57957,GUILIN,25.33,110.3,166.0
58221,BENGBU,32.95,117.37,22.0
58457,HANGZHOU,30.23,120.17,43.0
58847,FUZHOU,26.08,119.28,9.0
59211,BAISE,23.9,106.6,175.0
59493,SHENZHEN HUANGTIAN,22.63,113.82,4.0
59758,HAIKOU,20.03,110.35,24.0
60020,SANTA CRUZ DE TENE.,28.47,-16.27,35.0
60040,LANZAROTE,28.95,-13.6,14.0
60630,IN-SALAH,27.23,2.5,268.0
61291,BAMAKO,12.53,-7.95,380.0
61766,BISSAU,11.88,-15.65,39.0
61980,SAINT-DENIS,-20.88,55.52,21.0
62463,HURGHADA,27.15,33.72,16.0
63125,DJIBOUTI,11.55,43.15,13.0
63705,ENTEBBE,0.05,32.45,1155.0
63820,MOMBASA,-4.03,39.62,57.0
64210,KINSHASA/NDJILI,-4.38,15.43,309.0
64400,POINTE-NOIRE,-4.82,11.9,17.0
64700,NDJAMENA,12.13,15.03,295.0
65125,ABUJA,9.25,7.0,344.0
65401,NAVRONGO,10.9,-1.1,203.0
65557,GAGNOA,6.13,-5.95,205.0
67002,HAHAYA AIRPORT,-11.53,43.27,29.0
67137,FIANARANTSOA,-21.45,47.1,1115.0
67323,INHAMBANE,-23.87,35.38,14.0
67761,KARIBA,-16.52,28.88,518.0
67975,MASVINGO,-20.07,30.87,1094.0
68110,WINDHUK,-22.57,17.1,1728.0
68240,GABORONE AIRPORT,-24.22,25.92,1005.0
68368,JOHANNESBURG,-26.13,28.23,1694.0
68513,KOINGNAAS,-30.2,17.28,99.0
68647,QUEENSTOWN,-31.92,26.88,1098.0
68858,EAST LONDON,-33.03,27.83,125.0
68994,MARION ISLAND,-46.88,37.87,22.0
70273,ANCHORAGE INT.,61.17,-150.02,37.0
71066,HIGH LEVEL,ALTA.,58.62,-117.17,338.0
71123,EDMONTON INT.,53.3,-113.58,715.0
71515,DRYDEN,49.83,-92.75,413.0
71627,MONTREAL DORVAL,45.47,-73.75,31.0
71714,QUEBEC,QUE.,46.8,-71.38,70.0
71803,GANDER,48.95,-54.57,151.0
71827,LA GRANDE RIVIERE,53.63,-77.7,195.0
71877,CALGARY,51.12,-114.02,1077.0
71917,EUREKA UA N.W.T.,79.98,-85.93,10.0
71932,UXBRIDGE WEST ON,44.1,-79.17,325.0
72202,MIAMI,25.82,-80.28,3.0
72208,CHARLESTON,32.9,-80.03,14.0
72219,ATLANTA GA.,33.65,-84.42,312.0
72243,HOUSTON TX.,29.97,-95.35,30.0
72259,DALLAS,32.9,-97.03,182.0
72270,EL PASO INT.,31.8,-106.4,1206.0
72295,LOS ANGELES,33.93,-118.4,38.0
72315,ASHEVILLE/MUN.,NC.,35.43,-82.53,659.0
72353,OKLAHOMA CITY,35.38,-97.6,395.0
72376,FLAGSTAFF AZ.,35.23,-111.82,2192.0
72405,WASHINGTON,38.85,-77.03,5.0
72411,ROANOKE/MUN. VA.,37.32,-79.97,358.0
72438,INDIANAPOLIS IN/W.C.,39.73,-86.27,246.0
72488,RENO,39.5,-119.78,1344.0
72503,NEW YORK,40.77,-73.9,7.0
72524,CLEVELAND,41.42,-81.87,241.0
72546,DES MOINES/MUN. IA.,41.53,-93.65,294.0
72570,CRAIG-MOFFAT,CO.,40.5,-107.52,1915.0
72617,BURLINGTON/INT. VT.,44.47,-73.15,104.0
72681,BOISE/MUN. ID.,43.57,-116.22,871.0
72753,FARGO/HECTOR F. ND.,46.9,-96.8,274.0
72793,SEATTLE,47.45,-122.3,130.0
76548,TAMPICO,22.22,-97.85,9.0
76680,MEXICO CITY,19.4,-99.18,2309.0
78016,BERMUDA NAVAL,32.37,-64.68,6.0
78388,MONT.BAY-SANGSTER,18.5,-77.92,1.0
78479,PUNTA CANA,18.57,-68.37,12.0
78583,BELIZE AIRPORT,17.53,-88.3,5.0
78767,PUERTO LIMON,10.0,-83.05,5.0
78925,LE LAMENTIN,14.6,-61.0,5.0
78970,TRINIDAD PIARCO INT.,10.6,-61.35,17.0
80028,BARRANQUILLA/ER.COR.,10.88,-74.78,14.0
80259,CALI/ALFONSO B.,3.55,-76.38,961.0
81408,GEORGES DE L'OYAPOCK,3.88,-51.8,6.0
82579,TERESINA/INTL.,-5.05,-42.82,86.0
82993,MACEIO,-9.52,-35.78,117.0
83378,BRASILIA/INTL.,-15.87,-47.93,1061.0
83579,ARAXA,-19.57,-46.93,1004.0
83780,SAO PAULO,-23.62,-46.65,802.0
84008,SAN CRISTOBAL,-0.9,-89.6,6.0
84401,PIURA,-5.18,-80.6,49.0
85201,LA PAZ/ALTO,-16.52,-68.18,4058.0
85442,ANTOFAGASTA,-23.43,-70.43,135.0
85682,CONCEPCION,-36.77,-73.07,12.0
86218,ASUNCION,-25.27,-57.63,101.0
87289,PASO DE LOS LIBRES,-29.68,-57.15,69.0
87509,SAN RAFAEL AERO,-34.58,-68.4,745.0
87750,BAHIA BLANCA,-38.73,-62.17,75.0
87938,USHUAIA,-54.8,-68.32,16.0
89004,SANAE-AWS,-71.67,-2.83,815.0
89059,BERNARDO O'HIGGINS,-63.32,-57.9,10.0
89564,MAWSON,-67.6,62.88,10.0
89642,DUMONT D'URVILLE,-66.67,140.02,41.0
91285,HILO/GEN.,LYMAN.,19.72,-155.07,9.0
91568,ANEITYUM,-20.23,169.77,6.0
91843,RAROTONGA,-21.2,-159.82,7.0
93110,AUCKLAND AERO,-37.02,174.82,7.0
93781,CHRISTCHURCH AERO,-43.48,172.53,38.0
94131,TINDAL,-14.52,132.38,135.0
94294,TOWNSVILLE,-19.25,146.77,5.0
94346,LONGREACH AIRPORT,-23.43,144.28,192.0
94578,BRISBANE,-27.38,153.1,4.0
94653,CEDUNA (AIRPORT M.O.,-32.13,133.7,15.0
94767,SYDNEY AIRPORT,-33.95,151.18,6.0
94828,PORTLAND,-38.32,141.47,82.0
94975,HOBART,-42.83,147.48,4.0
95492,THAGOMINDAH,-27.98,143.82,132.0
96163,PADANG/TABING,-0.88,100.35,3.0
96491,SANDAKAN,5.9,118.07,12.0
96995,CHRISTMAS ISLAND,-10.45,105.68,279.0
97230,DENPASAR-NGURAHRAI,-8.75,115.17,1.0
98425,MANILA,14.58,120.98,13.0
98618,PUERTO PRINCESA,9.75,118.73,14.0
25913,MAGADAN,59.55,150.78,132.0
28411,IZHEVSK,56.83,53.45,131.0
34267,DANILOVKA,50.37,44.12,102.0
35138,ORSK (SOUTH APT),51.07,58.6,285.0
36003,PAVLODAR,52.3,76.93,131.0
36859,PANFILOV,44.17,80.07,136.0
37514,AKHALTSIKHE,41.65,43.0,139.0
37621,BOLNISI,41.45,44.57,134.0
37711,IDZHEVAN,40.87,45.15,136.0
37756,MARAZA,40.53,48.93,134.0
37897,SISIAN,39.5,46.03,134.0
38141,ZHASLYK,43.88,57.88,133.0
38343,KULAN,42.95,72.75,125.0
38396,URGENCH,41.58,60.65,131.0
38579,DZHIZAK,40.12,67.83,134.0
38613,DZHALAL-ABAD,40.92,72.95,136.0
38683,BUHARA (BUKHARA),39.78,64.48,130.0
38750,ESENGULY,37.47,53.97,159.0
38856,DARVAZ,38.47,70.78,129.0
38933,KURGAN-TYUBE,37.82,68.78,139.0
40608,MOSUL,36.32,43.15,223.0
41947,KHULNA,22.78,89.53,4.0
48618,KUALA TRENGGANU,5.38,103.1,6.0
65510,BOBO DIOULASSO,11.17,-4.33,461.0
72401,RICHMOND (BYRD AIRPO,37.52,-77.32,51.0
78990,FLAMINGO,BONAIRE,12.15,-68.28,6.0
83095,ARACAJÚ,-10.98,-37.07,8.0
83460,PORTO SEGURO,-16.43,-39.08,51.0
83649,VITÓRIA,-20.25,-40.28,3.0
83755,SANTOS DUMONT,-22.92,-43.17,3.0
83905,JOINVILLE,-26.22,-48.8,5.0
85244,SANTA CRUZ- VIRU,-17.65,-63.13,373.0
91592,NOUMEA,-22.27,166.45,69.0
01194,NARVIK,68.47,17.5,17.0
02096,PAJALA,67.2,23.38,165.0
02293,SKELLEFTEHAMN,64.63,21.08,46.0
02912,VAASA,63.1,21.58,4.0
04048,VESTMANNAEYJAR,63.4,-20.28,118.0
08513,PONTA DELGADA,37.75,-25.67,35.0
28642,CELJABINSK-BLANDINO,55.3,61.53,230.0
29846,NOVOKUZNETSK,53.82,86.88,308.0
34172,SARATOW,51.55,46.03,111.0
36985,KARAKOLKA,41.48,77.4,3080.0
37272,TKVARCHELI,42.83,41.67,266.0
37437,DUSHETI,42.08,44.7,128.0
37651,SHIRAKI,41.42,46.25,801.0
37747,YEVLAKH,40.63,47.15,133.0
37895,STEPANAKERT,39.82,46.75,131.0
38232,AK-KUDUK,42.97,54.1,129.0
40039,RAQQA,35.93,39.02,245.0
40415,DAMMAM (KING FAHD IN,26.43,49.8,13.0
40689,BASRAH,30.57,47.78,2.0
40914,BAGHLAN,36.08,68.65,550.0
40990,KANDAHAR,31.5,65.85,1010.0
41404,SANA'A,15.52,44.18,2206.0
41494,SOCOTRA,12.63,53.9,47.0
42475,ALLAHABAD/BAMHRAULI,25.45,81.73,97.0
47110,SEOUL AIRPORT,37.55,126.8,18.0
47182,CHEJU INT'L AIRPORT,33.52,126.5,36.0
47595,FUKUSHIMA,37.75,140.47,69.0
47618,MATSUMOTO,36.25,137.97,610.0
47671,TOKYO INTERNATIONAL,35.55,139.77,6.0
47759,KYOTO,35.02,135.73,41.0
47808,FUKUOKA AIRPORT,33.58,130.45,9.0
47930,NAHA,26.18,127.65,3.0
48632,CAMERON HIGHLANDS,4.47,101.37,1545.0
48966,SIEMREAP,13.37,103.85,15.0
57036,XI'AN,34.3,108.93,398.0
58367,SHANGHAI,31.4,121.47,8.0
61226,GAO,16.27,-0.05,265.0
61984,SAINT-PIERRE,-21.33,55.48,52.0
62460,SHARM EL SHEIKH,27.97,34.38,49.0
62810,KADUGLI,11.0,29.72,499.0
63023,MASSAWA,15.62,39.45,10.0
63451,HARAR MEDA,8.73,38.95,1900.0
64950,YAOUNDE/NSIMALEN,3.83,11.52,751.0
67561,NDOLA,-13.0,28.65,1269.0
68104,WALVIS BAY,-22.88,14.43,7.0
68476,LADYSMITH,-28.57,29.77,1100.0
70272,ANCHORAGE ELMENDORF,61.25,-149.8,65.0
71716,BATHURST,46.9,-71.5,168.0
71863,REGINA SASK.,50.43,-104.67,577.0
71957,INUVIK,68.3,-133.48,59.0
72237,FORT MYERS,26.53,-81.75,9.0
72340,NORTH LITTLE ROCK,34.83,-92.25,165.0
72469,DENVER,39.75,-104.87,1625.0
72512,NIAGARA FALLS,43.1,-78.95,180.0
72568,JACKSON HOLE,43.6,-110.73,1964.0
72775,GREAT FALLS MT.,47.48,-111.37,1118.0
76595,CANCUN,21.02,-86.85,10.0
78229,VARADERO,23.13,-81.28,3.0
78337,TRINIDAD,21.78,-79.98,54.0
78409,CAP-HAITIEN,19.75,-72.18,2.0
78475,LA ROMANA,18.42,-68.93,8.0
78662,SAN SALVADOR,13.72,-89.2,698.0
78792,PANAMA TOCUMEN APT,9.05,-79.37,45.0
78954,GRANTLEY ADAMS,13.07,-59.48,50.0
80421,MARGARITA INTL.,10.92,-63.97,24.0
82240,PARINTINS,-2.62,-56.73,29.0
82353,ALTAMIRA,-3.22,-52.22,74.0
82425,COARI,-4.08,-63.15,46.0
82567,CARAJAS,-6.12,-50.0,621.0
82640,JACAREACANGA,-6.23,-57.78,98.0
82900,RECIFE CURADO,-8.05,-34.92,7.0
82986,PAULO AFONSO,-9.4,-38.22,253.0
83344,VITÓRIA DA CONQUISTA,-14.88,-40.8,875.0
83531,PATOS DE MINAS,-18.52,-46.43,940.0
83618,TRÊS LAGOAS,-20.78,-51.7,313.0
83672,ARAÇATUBA,-21.2,-50.43,397.0
83719,CABO FRIO,-22.98,-42.03,7.0
83773,AVARE,-23.1,-48.92,793.0
83828,TOLEDO,-24.68,-53.7,562.0
83891,LAGES,-27.8,-50.33,937.0
83968,PORTO ALEGRE CANOAS,-29.95,-51.15,8.0
85972,KAP HOORN,-56.6,-68.72,42.0
86645,SORRISO,-12.55,-55.72,380.0
87839,FARO PUNTA DELGADA,-42.77,-63.63,56.0
89542,MOLODEZNAYA,-67.67,45.85,40.0
91530,NAURU INT.,-0.53,166.92,6.0
91961,PITCAIRN ISLAND,-25.07,-130.1,264.0
93780,CHRISTCHURCH,-43.48,172.55,38.0
94463,CURTIN SPRINGS,-25.32,131.75,488.0
94791,COFFS HARBOUR,-30.32,153.12,6.0
96747,JAKARTA HALIM P.,-6.25,106.9,30.0
98748,CAGAYAN DE ORO,8.48,124.63,5.0
F9402,CASCAVEL,-25.0,-53.5,754.0
F9406,BONITO,-21.38,-56.77,360.0
F9410,JI-PARANÁ,-10.87,-61.85,182.0
F9414,SÃO JOSÉ D. R. PRETO,-20.82,-49.4,544.0
F9418,TEIXEIRA DE FREITAS,-17.53,-39.68,105.0
F9422,JUIZ DE FORA,-21.52,-43.17,411.0
F9426,CRUZ/ARISTON PESSOA,-2.9,-40.35,73.0
F9430,ARARAQUARA,-21.8,-48.13,711.0
N9609,ABYEI,9.6,28.43,400.0
P0048,TONGARIO NATIONALP.,-39.25,175.5,1500.0
P0052,ARBIL,36.2,44.02,400.0
P0318,HEBER CITY,40.52,-111.42,1670.0
P0322,WESTL. DAVENPORT,37.0,-123.0,0.0
P0337,SAN PEDRO DE MACORIS,18.5,-69.3,5.0
P0342,NATIONALPARK JARAGUA,17.62,-71.42,0.0
P0408,VAIL,39.63,-106.37,2400.0
P0485,LOLENGI,0.15,21.0,380.0
P0517,USINSK,66.0,57.55,78.0
P0565,TIANJIN,39.1,117.17,5.0
P0569,ORLANDO / SANFORD A.,28.77,-81.25,17.0
P0614,CALICUT,11.13,75.95,104.0
W1164,ISLA MARGARITA,11.0,-64.0,0.0
W1724,KAP VERDEN,17.4,-24.48,0.0
W2030,20N30W,20.0,-30.0,0.0
W2617,SDL.TENERIFFA,26.3,-16.73,0.0
W3417,NDL.MADEIRA,34.0,-17.0,0.0
W4346,GEBIET 44,42.87,-45.82,0.0
W4715,GEBIET 46,47.07,-14.7,0.0
W4845,GEBIET 49,48.22,-45.35,0.0
W5244,GEBIET 54,52.42,-44.37,0.0
W5353,GEBIET 55,53.28,-52.83,0.0
W5755,GEBIET 60,57.18,-55.2,0.0
W5825,GEBIET 57,57.93,-24.88,0.0
W6031,PENTL-FARV3,60.47,-31.22,0.0
W6458,DAVISSTR1,64.0,-58.0,0.0
W9853,WINNIPEG-SEE,53.0,-98.0,0.0
E6319,BOTTENSEE-NW,62.8,18.8,0.0
E6602,POSITION M,66.0,2.0,0.0
E7520,BAERENINSEL,74.65,19.72,0.0
S4659,ATLANTIK SUED2,-46.0,-59.0,0.0
F9788,RAYONG/U-TAPAO PATT.,12.68,101.0,18.0
F9758,ERBIL INTL,36.23,43.95,415.0
01028,BJORNOYA,74.52,19.02,16.0
01092,MAKKAUR FYR,70.72,30.07,9.0
01238,FOKSTUA 2,62.12,9.28,973.0
02267,ORNSKOLDSVIK,63.3,18.68,24.0
02366,TIMRA/MIDLANDA,62.52,17.45,3.0
02830,KITTILA,67.7,24.85,196.0
02876,OULU,65.02,25.38,3.0
02929,JOENSUU APT,62.67,29.63,119.0
02948,SAVONLINNA,61.95,28.95,95.0
04097,DALATANGI,65.27,-13.58,9.0
04320,DANMARKSHAVN,76.77,-18.67,11.0
06011,FAROEER,62.02,-6.77,54.0
08501,FLORES/AZOREN,39.45,-31.13,28.0
08521,FUNCHAL,32.68,-16.77,58.0
08589,CAP VERDEN/PRAIA,14.9,-23.52,27.0
17280,DIYARBAKIR,37.88,40.2,687.0
20087,OSTROV GOLOMJANNYJ,79.55,90.62,8.0
22550,ARCHANGELSK,64.58,40.5,13.0
23256,TAZOVSKOE,67.47,78.73,8.0
23734,OKTJABRSKOE,62.45,66.05,72.0
24266,VERHOJANSK,67.55,133.38,137.0
27113,CEREPOVEC,59.25,37.97,114.0
27719,TULA,54.23,37.62,165.0
28382,UST-ISIM,57.68,71.18,62.0
28952,KUSTANAI,53.22,63.62,156.0
30054,VITIM,59.45,112.58,190.0
30710,IRKUTSK,52.27,104.35,485.0
31300,ZEJA,53.7,127.3,229.0
32053,NOGLIKI,51.92,143.13,34.0
32408,UST'KAMCHATSK,56.22,162.72,27.0
35108,URALSK,51.25,51.28,37.0
35358,TORGAI,49.63,63.5,123.0
37171,SOTSCHI,43.45,39.9,16.0
38353,BISHKEK,42.85,74.53,756.0
38696,SAMARKAND,39.57,66.95,724.0
38954,KHOROG,37.5,71.52,2077.0
40375,TABUK,28.38,36.6,778.0
40582,KUWAIT,29.22,47.98,55.0
40747,SANANDAJ,35.33,47.0,1373.0
40768,HAMEDAN,34.87,48.53,1749.0
40848,SHIRAZ,29.53,52.58,1486.0
41030,MAKKAH,21.43,39.77,240.0
41196,SHARJAH,25.33,55.52,35.0
41244,BURAIMI,24.23,55.78,299.0
41255,NIZWA,22.85,57.53,492.0
41262,FAHUD,22.35,56.48,170.0
41267,QALHAT,22.67,59.4,11.0
41312,RAYSUT PORT,16.92,53.92,33.0
41571,ISLAMABAD,33.62,73.1,507.0
41749,NAWABSHAH,26.25,68.37,37.0
41978,CHITTAGONG,22.27,91.82,4.0
42369,LUCKNOW,26.75,80.88,122.0
43128,HYDERABAD AIRPORT,17.45,78.47,530.0
43466,COLOMBO,6.9,79.87,7.0
44275,BAYANBULAG,46.83,98.08,2255.0
44454,KATHMANDU,27.7,85.37,1337.0
47016,HYESAN,41.4,128.17,715.0
47058,PYONGYANG,39.03,125.78,36.0
47108,SEOUL,37.57,126.97,86.0
47136,ANDONG,36.57,128.72,140.0
47152,ULSAN,35.55,129.32,32.0
47412,SAPPORO,43.05,141.33,17.0
47590,SENDAI,38.27,140.9,39.0
47746,TOTTORI / HONSHU,35.48,134.23,15.0
47815,OITA,33.23,131.62,5.0
47895,TOKUSHIMA / SHIKOKU,34.07,134.58,6.0
48327,CHIANG MAI,18.78,98.98,312.0
48461,PHATTHAYA,12.92,100.87,59.0
48569,HAT YAI,6.92,100.43,27.0
48657,KUANTAN,3.62,103.22,18.0
48940,VIENTIANE,17.95,102.57,171.0
50953,HARBIN,45.75,126.77,143.0
51765,TIKANLIK,40.63,87.7,847.0
52866,XINING,36.62,101.77,2262.0
53959,YUNCHENG,35.03,111.02,376.0
54324,CHAOYANG,41.55,120.45,167.0
54497,DANDONG,40.08,124.33,14.0
54753,LONGKOU,37.62,120.32,5.0
55472,XAINZA,30.95,88.63,4670.0
56196,MIANYANG,31.47,104.68,472.0
57083,ZHENGZHOU,34.72,113.65,111.0
57494,WUHAN,30.62,114.13,23.0
57687,CHANGSHA,28.23,112.87,68.0
57972,CHENZHOU,25.8,113.03,185.0
58238,NANJING,31.73,118.85,12.0
58477,DINGHAI,30.03,122.12,37.0
58968,TAIBEI,25.03,121.52,9.0
59287,GUANGZHOU,23.13,113.32,8.0
59644,BEIHAI,21.48,109.1,16.0
59948,YA XIAN,18.23,109.52,7.0
60025,TENERIFE SUR,28.05,-16.57,64.0
60680,TAMANRASSET,22.78,5.52,1378.0
61442,NOUAKCHOTT,18.1,-15.95,2.0
61832,CONAKRY/GBESSIA,9.57,-13.62,26.0
61988,RODRIGUES,-19.68,63.42,58.0
62405,LUXOR,25.67,32.7,93.0
62641,PORT SUDAN,19.58,37.22,3.0
63450,ADDIS ABABA,8.98,38.8,2324.0
63733,MUSOMA,-1.5,33.8,1147.0
63870,ZANZIBAR/KISAUNI,-6.22,39.22,15.0
64220,KINSHASA,-4.37,15.25,445.0
64450,BRAZZAVILLE,-4.25,15.25,319.0
64756,ABECHE,13.85,20.85,549.0
65201,LAGOS/IKEJA,6.58,3.33,40.0
65472,ACCRA,5.6,-0.17,68.0
65562,DIMBOKRO,6.65,-4.7,92.0
67009,DIEGO-SUAREZ,-12.35,49.3,114.0
67237,NAMPULA,-15.1,39.28,438.0
67341,MAPUT0/MAVALANE,-25.92,32.57,39.0
67775,HARARE-KUTSAGA,-17.92,31.13,1479.0
68010,OKAUKUEJO,-19.18,15.92,1102.0
68112,WINDHOEK HOSEA INTL.,-22.48,17.47,1719.0
68296,SKUKUZA,-24.98,31.6,263.0
68438,KIMBERLEY,-28.8,24.77,1204.0
68523,BRANDVLEI,-30.47,20.48,922.0
68727,BEAUFORT WEST,-32.35,22.55,902.0
68906,GOUGH ISLAND,-40.35,-9.88,54.0
70200,NOME,64.5,-165.43,6.0
70361,YAKUTAT,59.52,-139.67,11.0
71078,LYNN LAKE MAN.,56.87,-101.08,357.0
71260,SAULT STE.MARIE ONT.,46.48,-84.5,187.0
71621,TRENTON,44.12,-77.53,85.0
71628,OTTAWA,45.32,-75.67,116.0
71727,BAGOTVILLE,48.33,-71.0,159.0
71809,DEER LAKE NF.,49.22,-57.4,17.0
71828,SCHEFFERVILLE QUE.,54.8,-66.82,522.0
71888,JASPER,ALTA.,52.88,-118.07,1061.0
71924,RESOLUTE,74.72,-94.98,40.0
71934,FORT SMITH,60.02,-111.95,203.0
72203,WEST PALM BEACH,26.68,-80.12,6.0
72211,TAMPA,27.97,-82.53,8.0
72223,MOBILE/BATES F. AL.,30.68,-88.25,66.0
72250,BROWNSVILLE/TX.,25.92,-97.42,7.0
72261,DEL RIO,29.37,-100.92,310.0
72274,TUCSON INT.,32.12,-110.93,802.0
72306,RALEIGH/DURHAM NC.,35.87,-78.78,132.0
72327,NASHVILLE INT.,36.12,-86.68,180.0
72365,ALBUQUERQUE INT.,35.05,-106.62,1631.0
72386,LAS VEGAS/MCCARRAN,36.08,-115.17,662.0
72406,BALTIMORE,39.18,-76.67,48.0
72421,CINCINNATI OH.,39.05,-84.67,271.0
72446,KANSAS CITY,39.28,-94.75,316.0
72492,STOCKTON METRO. CA.,37.9,-121.25,8.0
72509,BOSTON MA.,42.37,-71.03,6.0
72528,BUFFALO INT.,NY.,42.93,-78.73,220.0
72547,DUBUQUE/MUN. IA.,42.4,-90.7,328.0
72572,SALT LAKE CITY,40.78,-111.97,1288.0
72640,MILWAUKEE,42.95,-87.9,220.0
72698,PORTLAND/INT. OR.,45.6,-122.6,12.0
72764,BISMARCK/MUN. ND.,46.77,-100.75,511.0
74486,NEW YORK JOHN F.K.,40.65,-73.78,4.0
76612,GUADALAJARA,20.67,-103.38,1551.0
76692,VERACRUZ,19.15,-96.12,16.0
78073,NASSAU,25.05,-77.47,3.0
78397,KINGSTON,17.93,-76.78,3.0
78485,LAS AMERICAS,18.43,-69.67,18.0
78641,GUATEMALA AEROPUERTO,14.58,-90.52,1489.0
78774,LIBERIA,10.6,-85.53,80.0
78948,HEWANORRA AIRPORT,13.75,-60.95,3.0
78982,QUEEN BEATRIX-AIRP.,12.5,-70.02,3.0
80110,MEDELLIN/OLAYA,6.22,-75.6,1490.0
81001,GEORGETOWN,6.8,-58.15,1.0
82022,BOA VISTA,2.83,-60.7,140.0
82599,NATAL AEROPORTO,-5.92,-35.25,52.0
83096,ARACAJU,-10.92,-37.05,9.0
83423,GOIANIA,-16.68,-49.28,747.0
83698,CAMPOS,-21.75,-41.33,11.0
83827,FOZ DO IGUACU AERP.,-25.52,-54.58,180.0
84071,QUITO,-0.13,-78.48,2794.0
84628,LIMA,-12.0,-77.12,12.0
85223,COCHABAMBA,-17.42,-66.18,2548.0
85469,OSTERINSEL,-27.15,-109.42,51.0
85799,PUERT0 MONTT,-41.43,-73.1,90.0
86580,MONTEVID. CARRASCO,-34.83,-56.0,33.0
87344,CORDOBA/ARGENTINIEN,-31.32,-64.22,484.0
87576,BUENOS AIRES AERO,-34.82,-58.53,20.0
87765,BARILOCHE AERO,-41.15,-71.17,845.0
88889,FALKLANDS,-51.82,-58.45,74.0
89574,PROGRESS,-69.38,76.38,14.0
91165,LIHUE,KAUAI,21.98,-159.35,45.0
91334,TRUK,CAROLINE IS.,7.47,151.83,2.0
91680,NANDI (FIDSCHI),-17.75,177.45,13.0
91925,ATUONA,-9.8,-139.03,51.0
93245,TAUPO,-38.73,176.08,407.0
93831,QUEENSTOWN/INTL.,-45.02,168.73,358.0
94203,BROOME AIRPORT,-17.95,122.22,17.0
94300,CARNARVON AIRPORT,-24.87,113.67,4.0
94374,ROCKHAMPTON,-23.38,150.48,14.0
94604,BUNBURY,-33.37,115.63,3.0
94672,ADELAIDE,-34.93,138.52,6.0
94768,SYDNEY,-33.87,151.22,39.0
94866,MELBOURNE AIRPORT,-37.67,144.83,132.0
94995,LORD HOWE ISLAND,-31.53,159.07,5.0
96001,SABANG,5.87,95.32,126.0
96315,BRUNEI AIRPORT,4.93,114.93,22.0
96741,JAKARTA,-6.12,106.87,2.0
96996,COCOS ISLAND AIRP.,-12.18,96.83,3.0
97240,AMPENAN,-8.53,116.07,3.0
98429,NINOY AQUINO/INTL.,14.52,121.0,14.0
98644,TAGBILARAN,9.6,123.85,7.0
27199,KIROV,58.57,49.57,134.0
28506,YELABUGA,55.77,52.05,135.0
34691,NOVYY USHTOGAN,47.9,48.8,137.0
35671,ZHEZKAZGAN,47.8,67.72,133.0
36428,ULKEN NARYN,49.2,84.52,133.0
36974,NARYN,41.43,76.0,129.0
37545,TBILISI (TIFLIS),41.75,44.77,140.0
37675,KUBA,41.37,48.52,131.0
37717,SEVAN LAKE,40.57,45.0,138.0
37785,ASHTARAK,40.28,44.35,137.0
37985,LENKORAN?,38.73,48.83,142.0
38178,AKBAYTAL,43.15,64.33,132.0
38345,TALAS,42.52,72.22,133.0
38413,TAMDYBULAK,41.73,64.62,137.0
38583,SYRDAR?YA,40.82,68.68,142.0
38616,KARA-SUU,40.7,72.9,126.0
38687,CHARDZHOU,39.08,63.6,132.0
38763,SERDAR,38.98,56.28,159.0
38875,KARAKUL?,39.02,73.55,138.0
38947,PYANDZH,37.25,69.08,134.0
40650,BAGHDAD,33.23,44.23,34.0
42181,NEU DELHI,28.57,77.12,220.0
61265,MOPTI,14.52,-4.08,276.0
65528,ODIENNE,9.5,-7.57,434.0
72508,HARTFORD/BRADLEY INT,41.93,-72.68,53.0
82099,MACAPA,0.05,-51.07,17.0
83349,ILHEUS,-14.82,-39.03,4.0
83525,UBERLÂNDIA,-18.88,-48.23,945.0
83652,RIBEIRÃO PRETO,-21.13,-47.77,549.0
83768,LONDRINA,-23.33,-51.13,569.0
83926,NAVEGANTES,-26.88,-48.65,5.0
87155,RESISTENCIA AIRPORT,-27.45,-59.05,52.0
01059,BANAK/LAKSELV (AFB),70.07,24.98,8.0
01215,HJELVIG (MYRBO),62.62,7.23,35.0
02120,KVIKKJOKK,66.95,17.73,320.0
02324,SVEG,62.03,14.37,360.0
04072,FAGURHOLSMYRI,63.88,-16.65,46.0
27615,MOSKAU/DOMODEDOVO,55.42,37.77,200.0
28807,SAMARA,53.25,50.45,40.0
30253,BODAJBO,57.85,114.23,275.0
34467,VOLGOGRAD,48.78,44.33,133.0
34731,ROSTOV-NA-DONU,47.25,39.82,78.0
37006,NOVOROSSIJSK,44.72,37.85,136.0
37279,ZUGDIDI,42.52,41.88,134.0
37531,GORI,42.0,44.12,132.0
37673,KHACHMAZ,41.42,48.88,142.0
37759,SUMGAIT,40.63,48.63,134.0
37905,ZHDANOVSK,39.77,47.75,149.0
38567,NAVOI,40.13,65.35,128.0
40016,HASSAKAH,36.5,40.75,307.0
40045,DEIR AZ ZAWR,35.32,40.15,215.0
40250,H-4 IRWAISHED,32.5,38.2,683.0
40438,RIYADH,24.7,46.73,635.0
40904,FAIZABAD,37.12,70.52,1200.0
40922,MIMANA,35.93,64.77,815.0
41020,JEDDAH (PORT),21.4,39.2,10.0
41431,HODEIDAH,14.75,42.98,115.0
41641,LAHORE AIRPORT,31.52,74.4,216.0
43057,BOMBAY,18.9,72.82,10.0
47113,INCHEON/INTL.,37.47,126.43,7.0
47545,AKITA AIRPORT,39.62,140.22,93.0
47598,ONAHAMA,36.95,140.9,3.0
47635,NAGOYA AIRPORT,35.25,136.93,14.0
47686,TOKYO AIRPORT,35.77,140.38,41.0
47768,OKAYAMA / HONSHU,34.65,133.92,18.0
47819,KUMAMOTO,32.82,130.72,39.0
48070,MONGHSAT,20.55,99.27,572.0
48694,PAYA LEBAR,1.35,103.9,20.0
52889,LANZHOU,36.05,103.88,1518.0
58259,NANTONG,32.1,120.87,1.0
59368,XINGANG,23.1,121.37,37.0
61202,TESSALIT,20.25,0.98,494.0
61415,NOUADHIBOU,20.93,-17.03,5.0
62760,EL FASHER,13.62,25.33,730.0
62840,MALAKAL,9.55,31.65,387.0
63170,HARGEISA,9.5,44.08,1326.0
63789,ARUSHA,-3.4,36.62,1387.0
65082,MAIDUGURI,11.85,13.08,354.0
67665,LUSAKA,-15.32,28.45,1152.0
68190,PHALABORWA,-23.93,31.15,427.0
68992,BOUVET ISLAND,-54.4,3.3,28.0
70308,ST.PAUL,57.15,-170.22,10.0
71749,THUNDER BAY ONT.,48.37,-89.32,199.0
71909,IQALUIT,63.75,-68.55,34.0
72204,ORLANDO MELBOURNE I.,28.1,-80.65,11.0
72242,GALVESTON,29.3,-94.8,2.0
72388,SAN JOSE INT.,37.37,-121.93,18.0
72482,SACRAMENTO INT.,38.7,-121.58,7.0
72522,HARRISBURG INT.,40.2,-76.77,94.0
72610,BANGOR INT.,44.8,-68.83,59.0
72779,KALISPELL,MT.,48.3,-114.27,906.0
76679,MEXICO INT.,19.43,-99.08,2243.0
78258,HOLGUIN,20.8,-76.32,106.0
78339,CIEGO DE AVILA,22.52,-78.45,2.0
78439,PORT AU PRINCE,18.57,-72.3,31.0
78547,ST. CROIX,17.7,-64.8,17.0
78666,SAN SALVADOR AIRPORT,13.43,-89.05,25.0
78861,COOLIDGE FIELD,17.12,-61.78,10.0
80407,MARACAIBO,10.72,-71.73,66.0
80438,MERIDA/VENEZUELA,8.6,-71.18,1479.0
82280,SÃO LUIZ,-2.53,-44.3,51.0
82397,FORTALEZA,-3.77,-38.6,26.0
82444,ITAITUBA,-4.25,-56.0,33.0
82591,MOSSORO/DIX SEPT R.,-5.2,-37.37,23.0
82659,ARAGUAÍNA,-7.1,-48.2,229.0
82915,RIO BRANCO,-9.97,-67.8,143.0
83208,VILHENA,-12.7,-60.1,612.0
83359,BARRA DO GARÇAS,-15.87,-52.38,350.0
83543,GOVERNADOR VALADARES,-18.85,-41.93,263.0
83635,DIVINÓPOLIS,-20.17,-44.87,789.0
83692,JUIZ DE FORA,-21.77,-43.37,939.0
83726,SAO CARLOS,-21.98,-47.88,856.0
83782,SANTOS,-23.93,-46.33,14.0
83837,PONTA GROSSA,-25.1,-50.17,868.0
83914,PASSO FUNDO,-28.25,-52.4,684.0
83981,BAGE/GUSTAVO KRAEMER,-31.38,-54.12,180.0
86570,PUNTA DEL ESTE,-34.92,-54.92,20.0
86652,BARREIRAS,-12.12,-45.03,470.0
87903,LAGO ARGENTINO AERO,-50.33,-72.3,223.0
91574,CHESTERFIELD,-19.97,158.52,3.0
93119,AUCKLAND,-37.02,174.8,7.0
93890,DUNEDIN,-45.93,170.2,1.0
94564,RAINBOW BEACH,-25.92,153.1,10.0
94868,MELBOURNE,-37.82,144.97,31.0
96853,JOGYAKARTA/ADISUC.,-7.78,110.43,107.0
99953,LONGBOAT KEY,27.38,-82.63,8.0
F9403,CACADOR,-26.78,-50.93,1014.0
F9407,GUARAPUAVA,-25.38,-51.22,1065.0
F9411,JUAZEIRO DO NORTE,-7.22,-39.27,409.0
F9415,PORTO DE TROMBETAS,-1.48,-56.4,88.0
F9419,POLO TURISTICO,-2.9,-40.37,8.0
F9423,FORT WORTH-ALLIANCE,,32.98,-97.32,220.0
F9427,MACAE,-22.33,-41.77,3.0
F9431,UMUARAMA,-23.8,-53.32,475.0
P0001,INSEL BORACAY,11.98,121.92,4.0
P0005,STR.V.MOZAMBIQUE,-16.0,42.0,0.0
P0049,MOUNT COOK NAT.PARK,-43.58,170.25,2000.0
P0094,RONDESLOTTET,61.93,9.87,2178.0
P0315,ARGUINEGUIN,27.75,-15.65,15.0
P0319,PROVO,40.25,-111.67,1388.0
P0323,WESTL. ENSENADA,48.0,-130.0,0.0
P0338,S.FRANCI. DE MACORIS,19.32,-70.25,116.0
P0343,NAT.PK. MTE. CHRISTI,19.87,-71.65,0.0
P0396,ARE,63.38,13.2,371.0
P0400,RIKSGRAENSEN,68.43,18.15,400.0
P0486,OHARA,35.23,140.38,20.0
P0522,RAAHE,64.68,24.48,5.0
P0526,KOGALYM,62.23,74.53,77.0
P0530,KOKKOLA,63.83,23.13,13.0
P0542,QUANZHOU,25.93,111.07,158.0
P0558,SUBIC,14.87,120.23,20.0
P0562,SHENYANG / TAOXIAN,41.57,123.47,60.0
P0566,ASTANA,51.12,71.37,347.0
P0574,LUHANSK,48.42,39.38,194.0
P0611,DHAKA ZIA INTL.,23.83,90.4,9.0
P0615,HYDERABAD,17.25,78.42,500.0
W1261,LEEW.ISLANDS-S,12.0,-61.0,0.0
W1843,18N43W,18.0,-43.0,0.0
W2180,TRINIDAD/KUBA,21.0,-80.0,0.0
W2778,GRAND BAHAMA,27.0,-78.0,0.0
W3015,CANARIS-SUED,30.0,-15.0,0.0
W4215,GEBIET 41,41.78,-15.47,0.0
W4726,GEBIET 47,47.0,-25.7,0.0
W5413,WESTL.IRLAND,53.65,-12.62,0.0
W5716,GEBIET 56,57.37,-15.7,0.0
W5843,KAP FARVELL,58.08,-43.47,0.0
89014,NORDENSKIOLD BASE,-73.05,-13.38,495.0
89504,TROLL,-72.02,2.53,1277.0
01001,JAN MAYEN,70.93,-8.67,10.0
01049,ALTA LUFTHAVN,69.98,23.37,3.0
01152,BODOE,67.27,14.37,13.0
01241,ORLAND,63.7,9.6,7.0
01366,SOGNEFJELL,61.57,8.0,1415.0
02049,GALLIVARE APT,67.15,20.65,359.0
02284,JAERNAESKLUBB,63.43,19.68,6.0
02836,SODANKYLA,67.37,26.65,179.0
02897,KAJAANI,64.28,27.68,143.0
02935,JYVASKYLA,62.4,25.68,141.0
04018,KEFLAVIK,63.97,-22.6,52.0
04231,SONDRESTROMFJORD,67.02,-50.7,50.0
04330,DANEBORG,74.3,-20.22,44.0
08505,AZOREN,38.52,-28.72,40.0
08594,SAL,16.73,-22.95,54.0
17038,TRABZON,41.0,39.72,35.0
20674,OSTROV DIKSON,73.5,80.4,47.0
22583,KOJNAS,64.75,47.65,63.0
23330,SALEHARD,66.53,66.67,16.0
23804,SYKTYVKAR,61.67,50.85,116.0
24688,OJMJAKON,63.25,143.15,741.0
27459,NIZHNY NOVGOROD,56.23,43.78,78.0
27730,RYAZAN,54.63,39.7,158.0
28440,EKATERINBURG,56.8,60.63,237.0
29122,KARGASOK,59.05,80.95,59.0
30309,BRATSK,56.28,101.75,416.0
30731,GORJACINSK,52.98,108.28,488.0
31478,SOFIJSKIJ PRIISK,52.27,133.98,902.0
32150,JUZHNO-SAKHALINSK,46.95,142.72,24.0
35121,ORENBURG,51.68,55.1,117.0
35394,KARAGANDA,49.8,73.15,553.0
37228,WLADIKAVKAZ,43.05,44.65,703.0
38457,TASCHKENT,41.27,69.27,428.0
38836,DUSHANBE,38.55,68.78,800.0
40416,DHAHRAN INTL,26.27,50.15,26.0
40704,AHAR,38.43,47.07,1390.0
40754,TEHERAN,35.68,51.35,1204.0
40794,SAFI-ABAD DEZFUL,32.27,48.43,82.0
40854,BAM,29.1,58.4,1067.0
41170,DOHA-INT.AIRPORT,25.25,51.57,11.0
41217,ABU DHABI/INTL.,24.43,54.65,27.0
41246,SOHAR MAJIS,24.47,56.63,4.0
41256,SEEB-INT.AIRPORT,23.58,58.28,15.0
41263,BAHLA,22.98,57.3,589.0
41268,SUR,22.53,59.48,14.0
41314,THUMRAIT,17.67,54.03,467.0
41620,ZHOB,31.35,69.47,1405.0
41780,KARACHI,24.9,67.13,21.0
42182,NEW DELHI/SAFDARJUNG,28.58,77.2,211.0
42809,CALCUTTA,22.65,88.45,4.0
43279,MADRAS,13.0,80.18,10.0
43467,RATMALANA,6.82,79.88,5.0
44292,ULAAN-BAATOR,47.92,106.87,1307.0
45007,HONGKONG,22.33,114.18,5.0
47041,HAMHEUNG,39.93,127.55,15.0
47101,CHUNCHON,37.9,127.73,74.0
47114,WONJU,37.33,127.95,149.0
47138,POHANG,36.03,129.38,6.0
47156,KWANGJU,35.17,126.88,70.0
47430,HAKODATE,41.82,140.75,43.0
47604,NIIGATA,37.92,139.05,2.0
47765,HIROSHIMA,34.4,132.47,53.0
47827,KAGOSHIMA,31.57,130.55,4.0
48042,MANDALAY,21.98,96.1,74.0
48429,BANGKOK/SUVARNABHUMI,13.68,100.77,2.0
48475,HUA HIN,12.58,99.95,5.0
48601,PENANG-BAYANLEPAS,5.3,100.25,3.0
48698,SINGAPUR,1.37,103.98,5.0
48991,PHNOM-PENH/POCHENT.,11.55,104.85,10.0
51463,URUMQI,43.78,87.62,919.0
51818,PISHAN,37.62,78.28,1376.0
53487,DATONG,40.1,113.33,1069.0
54102,XILINHOT,43.95,116.07,991.0
54342,SHENYANG,41.77,123.43,43.0
54511,PEKING,39.93,116.28,55.0
54823,JINAN,36.6,117.05,169.0
55578,XIGAZE,29.25,88.88,3837.0
56571,XICHANG,27.9,102.27,1599.0
57245,ANKANG,32.72,109.03,291.0
57516,CHONGQING,29.52,106.48,351.0
57793,YICHUN,27.8,114.38,129.0
58027,XUZHOU,34.28,117.15,42.0
58362,SHANGHAI PUDONG,31.4,121.47,8.0
58527,JINGDEZHEN,29.3,117.2,60.0
59046,LIUZHOU,24.35,109.4,97.0
59316,SHANTOU,23.35,116.67,4.0
59658,ZHANJIANG,21.22,110.4,28.0
60005,LA PALMA,28.62,-17.75,29.0
60030,LAS PALMAS,27.93,-15.38,24.0
61024,AGADEZ,16.97,7.98,501.0
61641,DAKAR,14.73,-17.5,27.0
61901,ST. HELENA,-15.93,-5.07,435.0
61990,PLAISANCE,-20.43,57.67,55.0
62414,ASSUAN,23.97,32.78,192.0
62721,KHARTOUM,15.6,32.55,382.0
63471,DIREDAWA,9.6,41.85,1260.0
63740,NAIROBI,-1.32,36.92,1624.0
63894,DAR ES SALAAM AIRP.,-6.87,39.2,55.0
64387,KIGALI,-1.97,30.12,1491.0
64500,LIBREVILLE,0.45,9.42,12.0
64910,DOUALA,4.0,9.73,10.0
65344,COTONOU,6.35,2.38,5.0
65503,OUAGADOUGOU,12.35,-1.52,316.0
65578,ABIDJAN,5.25,-3.93,7.0
67027,MAJUNGA,-15.67,46.35,26.0
67295,CHIMOIO,-19.12,33.47,731.0
67586,LILONGWE,-13.78,33.77,1229.0
67843,VICTORIA FALLS,-18.1,25.85,1061.0
68029,KASANE,-17.82,25.15,968.0
68174,PIETERSBURG,-23.83,29.42,1228.0
68300,LUDERITZ/DIAZ POINT,-26.63,15.1,23.0
68442,BLOEMFONTEIN,-29.1,26.3,1354.0
68558,BARKLY EAST,-30.93,27.6,1816.0
68816,KAPSTADT,-33.98,18.6,42.0
68916,CAPE POINT,-34.35,18.5,208.0
70219,BETHEL AK,60.78,-161.8,40.0
70381,JUNEAU,58.37,-134.58,5.0
71090,CLYDE N.W.T.,70.48,-68.52,25.0
71395,HALIFAX INT.,44.88,-63.52,145.0
71622,BRANTFORD,43.03,-81.15,278.0
71700,FREDERICTON,45.87,-66.53,17.0
71731,NORTH BAY,46.35,-79.43,358.0
71815,STEPHENVILLE NFLD.,48.53,-58.55,8.0
71849,DEER LAKE,49.92,-97.23,239.0
71892,VANCOUVER,49.18,-123.17,3.0
71925,CAMBRIDGE BAY N.W.T.,69.1,-105.13,25.0
71966,DAWSON,Y.T.,64.05,-139.13,370.0
72205,ORLANDO /JETPORT,28.43,-81.32,29.0
72214,TALLAHASSEE,30.38,-84.37,25.0
72226,MONTGOMERY,32.3,-86.4,67.0
72253,SAN ANTONIO INT.,29.53,-98.47,247.0
72266,ABILENE/MUN. 18.,32.42,-99.68,542.0
72278,PHOENIX AZ.,33.43,-112.02,344.0
72308,NORFOLK/INT.,VA.,36.9,-76.2,8.0
72334,MEMPHIS,35.05,-90.0,101.0
72370,KINGMAN/MOHAVE,AZ.,35.27,-113.93,1050.0
72389,FRESNO/AIR TERM.,36.77,-119.72,100.0
72407,ATLANTIC CITY INT.,39.45,-74.57,21.0
72423,LOUISVILLE/STAND.KY.,38.18,-85.73,151.0
72451,DODGE CITY/MUN.KS.,37.77,-99.97,791.0
72494,SAN FRANCISCO,37.62,-122.38,6.0
72519,SYRACUSE/HANCOCK NY.,43.12,-76.12,124.0
72530,CHICAGO,41.98,-87.9,203.0
72564,CHEYENNE WY.,41.15,-104.82,1876.0
72594,EUREKA CA.,40.8,-124.17,13.0
72658,MINNEAPOLIS,44.88,-93.22,256.0
72734,SAULT STE.MARIE MI.,46.47,-84.37,218.0
72781,YAKIMA WA.,46.57,-120.53,332.0
76225,CHIHUAHUA,28.63,-106.08,1435.0
76644,AEROP.INT. MERIDA,20.98,-89.65,9.0
76743,VILLAHERMOSA,17.98,-92.93,16.0
78224,HAVANNA,22.98,-82.4,75.0
78458,PUERTO PLATA,19.75,-70.57,5.0
78486,SANTO DOMINGO,18.43,-69.88,14.0
78720,TEGUCIGALPA,14.05,-87.22,1007.0
78866,ST. MAARTEN,18.05,-63.12,4.0
78958,GRENADA,12.0,-61.78,6.0
78988,HATO-AIRPORT,12.2,-68.97,9.0
80112,RIO NEGRO/J.M.CORDO.,6.13,-75.43,2140.0
81002,TIMEHRI/GUYANA,6.5,-58.25,28.0
82193,BELEM/INTL.,-1.38,-48.48,16.0
82824,PORTO VELHO,-8.72,-63.9,102.0
83248,SALVADOR BAHIA,-12.9,-38.33,6.0
83437,MONTES CLAROS,-16.72,-43.87,646.0
83746,GALEAO (RIO/INTL.),-22.82,-43.25,6.0
83899,FLORIANOPOLIS AERP.,-27.67,-48.55,5.0
84203,GUAYAQUIL,-2.15,-79.88,4.0
84686,CUZCO,-13.55,-71.98,3248.0
85242,ORURO,-17.97,-67.07,3072.0
85574,PUDAHUEL,-33.38,-70.78,474.0
85874,BALMACEDA,-45.92,-71.7,522.0
87046,JUJUY AERO,-24.38,-65.08,921.0
87418,MENDOZA AERO,-32.83,-68.78,705.0
87623,SANTA ROSA,-36.57,-64.27,190.0
87803,ESQUEL AERO,-42.93,-71.15,789.0
88903,GRYTVIKEN,-54.28,-36.5,3.0
89512,NOVOLAZAREVSKAJA,-70.77,11.83,119.0
89592,MIRNYJ,-66.55,93.02,40.0
91182,HONOLULU,21.35,-157.93,2.0
91348,PONAPE,6.97,158.22,37.0
91753,HIHIFO,-13.23,-176.17,23.0
91938,TAHITI,-17.55,-149.62,2.0
93439,WELLINGTON,-41.33,174.82,13.0
93845,INVERCARGILL,-46.42,168.32,2.0
94238,TENNANT CREEK AIRPOR,-19.63,134.18,375.0
94312,PORT HEDLAND,-20.37,118.63,9.0
94403,GERALDTON,-28.8,114.7,35.0
94608,PERTH,-31.95,115.87,19.0
94691,BROKEN HILL/INTL.,-32.0,141.47,292.0
94774,NEWCASTLE,-32.92,151.8,33.0
94926,CANBERRA,-35.3,149.18,575.0
94998,MACQUARIE ISLAND,-54.5,158.93,6.0
96011,BANDA ACEH/BL.BINTG.,5.52,95.42,21.0
96413,KUCHING,1.48,110.33,27.0
96749,JAKARTA SOEKARNO,-6.12,106.65,8.0
97014,MENADO/DR.SAM RATU.,1.53,124.92,80.0
97260,SUMBAWA BESAR,-8.43,117.42,3.0
98431,CALAPAN,13.42,121.18,39.0
98646,MACTAN,10.32,123.98,23.0
23205,NAR?JAN-MAR,67.63,53.02,139.0
27333,KOSTROMA,57.73,40.78,136.0
28676,PETROPAVLOVSK,54.8,69.12,139.0
34949,STAVROPOL,45.12,42.08,451.0
35700,GUR?YEV,47.12,51.83,147.0
36639,URZHAR,47.12,81.62,132.0
37235,GROZNYJ,43.35,45.68,163.0
37575,ZAKATALY,41.57,46.67,132.0
37699,APARAN,40.53,44.38,136.0
37735,GYANDJA,40.72,46.42,147.0
37787,ARMAVIR,40.13,43.9,149.0
38062,KYZYL-ORDA,44.85,65.5,129.0
38264,NUKUS CITY,42.48,59.62,77.0
38388,EKEZHE,41.03,57.77,133.0
38462,PSKEM,41.9,70.37,128.0
38599,KHUDJAND,40.22,69.7,152.0
38618,FERGANA,40.38,71.75,130.0
38705,PENDZHIKENT,39.5,67.6,130.0
38812,KARSHI,38.8,65.77,127.0
38895,MARY (BAYRAM-ALI),37.6,62.18,133.0
38974,SERAKHS,36.53,61.22,135.0
41150,BAHREIN-INT.AIRP.,26.27,50.65,2.0
42647,AHMEDABAD INTL,23.07,72.62,58.0
63710,KERICHO,-0.37,35.35,2184.0
65548,MAN,7.38,-7.52,339.0
72543,ROCKFORD GREATER ROC,42.2,-89.1,224.0
82244,SANTARÉM,-2.42,-54.8,72.0
83377,BRASILIA,-15.78,-47.93,1158.0
83576,UBERABA,-19.77,-47.97,808.0
83721,CAMPINAS-VIRACOPOS,-23.02,-47.15,661.0
83779,SAO PAULO/INTL.,-23.43,-46.47,750.0
83928,URUGUAIANA,-29.78,-57.03,74.0
87480,ROSARIO,-32.92,-60.78,25.0
01112,BRONNOYSUND/BRONNOY,65.45,12.22,8.0
01223,KRISTIANSUND,63.12,7.83,44.0
02128,GUNNARN,64.97,17.7,278.0
02810,ENONTEKIO,68.37,23.6,306.0
04094,NUPUR,64.7,-14.1,25.0
23073,NORILSK,69.4,88.07,126.0
28225,PERM,57.95,56.2,170.0
29570,KRASNOJARSK,56.03,92.75,276.0
34519,DONETSK,48.07,37.77,224.0
34929,KRASNODAR,45.02,39.15,29.0
37177,GAGRY,43.25,40.27,7.0
37308,AMBROLAURI,42.53,43.13,136.0
37549,TBILISI,41.68,44.95,490.0
37686,GYUMRI,40.77,43.85,145.0
37789,YEREVAN,40.15,44.4,865.0
37959,KAFAN,39.2,46.45,133.0
38869,IRHT,38.17,72.63,132.0
40061,PALMYRA,34.55,38.3,408.0
40616,ERBIL,36.15,44.0,414.0
40911,MAZAR-I-SHARIF,36.7,67.2,378.0
40938,HERAT,34.22,62.22,964.0
41240,KHASAB,26.22,56.23,3.0
41466,TAIZ,13.68,44.13,1402.0
42042,SRINAGAR,33.98,74.78,1664.0
43194,GOA-DABOLIM,15.38,73.82,61.0
47153,PUSAN,35.18,128.93,4.0
47569,SENDAI AIRPORT,38.13,140.92,1.0
47607,TOYAMA,36.7,137.2,17.0
47642,YOKOTA AIR BASE,35.75,139.35,141.0
47687,TOKIO,35.63,139.85,5.0
47771,OSAKA AIRPORT,34.78,135.45,12.0
47836,YAKUSHIMA,30.37,130.67,37.0
48600,LANGKAWI,6.33,99.73,6.0
48820,HANOI,21.02,105.8,6.0
54543,SHANHAIGUAN,39.97,119.8,12.0
58334,WUHU,31.33,118.35,16.0
59554,GAOXIONG,22.62,120.27,33.0
61214,KIDAL,18.43,1.35,458.0
61856,FREETOWN,8.62,-13.2,25.0
62771,EL OBEID,13.17,30.23,574.0
62941,JUBA,4.87,31.6,460.0
63175,BURAO,9.52,45.57,1032.0
64005,MBANDAKA,0.05,18.27,345.0
65660,MONROVIA/ROBERTS,6.25,-10.35,8.0
67743,LIVINGSTONE,-17.82,25.82,985.0
68239,POMFRET,-25.83,23.53,1182.0
71601,HALIFAX,44.63,-63.5,51.0
71811,SEPT-ILES QUE.,50.22,-66.27,55.0
71911,SHEPHERD BAY,68.82,-93.43,51.0
72216,ALBANY,31.53,-84.18,60.0
72287,ONTARIO INT.,34.05,-117.6,287.0
72466,COLORADO SPRINGS,38.82,-104.72,1873.0
72487,CALIENTE,NV.,37.62,-114.52,1335.0
72527,PITTSBURGH/ALLEGH.,40.35,-79.93,382.0
72613,MOUNT WASHINGTON NH.,44.27,-71.3,1909.0
74783,FORT LAUDERDALE,26.07,-80.15,35.0
78118,TURKS ISLAND,21.45,-71.15,10.0
78315,PINAR DEL RIO,22.42,-83.68,41.0
78344,CIENFUEGOS,22.13,-80.45,42.0
78447,LES CAYES,18.18,-73.73,1.0
78550,BEEF ISLAND,TORTOLA,18.45,-64.53,4.0
78741,MANAGUA SANDINO APT,12.15,-86.17,56.0
78899,MARIE GALANTE,15.87,-61.27,5.0
80415,CARACAS AEROPUERTO,10.6,-66.98,43.0
80472,VALENCIA,10.17,-67.93,430.0
82288,PARNAÍBA,-2.9,-41.73,5.0
82400,FERNANDO DE NORONHA,-3.85,-32.42,56.0
82562,MARABÁ,-5.37,-49.13,95.0
82598,NATAL,-5.77,-35.2,45.0
82795,CAMPINA GRANDE,-7.23,-35.9,548.0
82965,ALTA FLORESTA,-9.87,-56.1,288.0
83221,FEIRA DE SANTANA,-12.2,-38.97,232.0
83410,RONDONÓPOLIS,-16.47,-54.58,284.0
83552,CORUMBÁ,-19.02,-57.67,130.0
83648,VITORIA,-20.32,-40.33,8.0
83703,PONTA PORA AEROPORTO,-22.55,-55.7,660.0
83743,RIO DE JANEIRO,-22.92,-43.17,5.0
83809,SÃO JOSÉ DOS CAMPOS,-23.23,-45.87,646.0
83842,CURITIBA,-25.43,-49.27,923.0
83920,SAO JOAQUIM,-28.28,-49.92,1402.0
83985,PELOTAS,-31.78,-52.42,13.0
86622,CACOAL,-11.45,-61.43,210.0
86676,VALENÇA,-13.35,-39.13,105.0
89042,SIGNY ISLAND,-60.72,-45.6,6.0
91217,GUAM MARIANA IS.,13.55,144.83,110.0
91663,SAVUSAVU AIRPORT,-16.8,179.33,3.0
93308,NEW PLYMOUTH,-39.02,174.18,28.0
94035,PORT MORESBY,-9.43,147.22,42.0
94587,TABULAM,-28.75,152.45,555.0
95367,MACKAY,-21.17,149.18,6.0
97290,ENDEH,-8.8,121.6,3.0
F9404,CRICIÚMA,-28.73,-49.43,28.0
F9408,IPATINGA,-19.47,-42.48,239.0
F9412,MARILIA,-22.2,-49.93,647.0
F9416,UNA,-15.35,-39.0,6.0
F9420,MALDONADO,-34.85,-55.1,29.0
F9424,BAURU/AREALVA APT.,22.15,-49.07,594.0
F9428,PONTA GROSSA,-25.18,-50.15,789.0
F9432,PATO BRANCO AIRPORT,-26.22,-52.7,822.0
P0002,CHITWAN-PARK,27.58,84.17,150.0
P0014,PALM SPRINGS (CF.),33.75,-116.4,125.0
P0046,TORAJA-LAND,-2.98,119.9,1200.0
P0316,OGDEN,41.23,-111.98,902.0
P0320,SUEDL. ISLAS MARIAS,21.0,-107.0,0.0
P0324,OBERER SEE,47.22,-86.38,0.0
P0339,CONCEPCION D.L. VEGA,19.22,-70.52,71.0
P0344,NAT.PK. LOS HAITISES,19.08,-69.6,0.0
P0418,SULEJA,9.03,7.45,480.0
P0479,TEHERAN/IMAM KHOMEI.,35.42,51.15,1008.0
P0519,JINING / SHANDONG,35.4,116.57,44.0
P0539,VARKAUS,62.32,27.87,77.0
P0575,FORT MCMURRAY ALTA.,56.65,-111.22,369.0
P0612,BANGALURU,13.18,77.7,889.0
P0641,GAMBELLA,9.85,34.58,526.0
W1560,LEEW.ISLANDS-N,15.0,-60.0,0.0
W1862,WINDW.INSELN-E,18.0,-62.0,0.0
W2476,BAHAMAS,24.0,-76.0,0.0
W2814,SDL.FUERTEVENTURA,27.52,-13.87,0.0
W4235,GEBIET 43,42.35,-35.32,0.0
W4652,GEBIET 50,45.68,-52.37,0.0
W5325,GEBIET 52,53.05,-25.17,0.0
W5720,POSITION L,57.0,-20.0,0.0
W6050,SW-GROENLAND,60.27,-49.98,0.0
W6531,DOHRNBANK,64.75,-30.55,0.0
W7041,SUEDL.NANTUCKET IS.,41.0,-70.0,0.0
E2834,ROTES MEER,27.53,34.07,0.0
E2835,GOLF AKABA-S,28.42,34.58,0.0
E6204,SVINOY,62.33,4.38,0.0
E6220,BOTTENSEE,62.0,19.52,0.0
E6407,FROYABANKEN,64.0,7.0,0.0
E6421,QUARK,63.5,21.0,0.0
E6609,HALTENBANK,65.52,8.58,0.0
E6914,LOFOTEN,68.55,14.05,0.0
E7707,SPITZBERGEN,76.97,7.32,0.0
F9751,DUBAI/AL MAKTOUM INT,24.92,55.18,52.0
89022,HALLEY,-75.45,-26.22,30.0
01008,SVALBARD,78.25,15.47,29.0
01052,HAMMERFEST,70.67,23.67,81.0
01180,HARSTAD,68.8,16.53,45.0
01271,TRONDHEIM,63.47,10.92,17.0
01380,VENABU,61.65,10.12,940.0
02186,LULEA,65.55,22.13,17.0
02286,UMEA,63.8,20.28,7.0
02752,KRISTIINANKAUPUNGIN,62.2,21.17,2.0
02847,ROVANIEMI,66.5,25.72,85.0
02915,VIITASAARI,63.08,25.87,132.0
04030,REYKJAVIK,64.13,-21.9,54.0
04250,GODTHAB NUUK,64.17,-51.75,80.0
04360,TASIILAQ,65.6,-37.63,50.0
08509,LAJES/AZOREN,38.77,-27.1,52.0
17170,VAN,38.45,43.32,1669.0
21824,TIKSI,71.58,128.92,7.0
22802,SORTAVALA,61.72,30.72,19.0
23472,TURUHANSK,65.78,87.93,38.0
23849,SURGUT,61.35,73.4,55.0
24959,JAKUTSK,62.02,129.72,101.0
27595,KAZAN,55.6,49.28,116.0
27962,PENZA,53.12,45.02,174.0
28698,OMSK,55.02,73.38,122.0
29430,TOMSK,56.47,84.97,130.0
30433,NIZHNEANGARSK,55.78,109.55,487.0
30758,CHITA,52.08,113.48,671.0
31735,HABAROVSK,48.52,135.17,76.0
32215,SEVERO-KURILSK,50.68,156.13,23.0
34123,VORONEZ,51.7,39.22,149.0
34560,VOLGOGRAD,48.78,44.37,134.0
35188,TSELINOGRAD,51.12,71.37,342.0
35746,ARAL'SK,46.78,61.65,62.0
37788,YEREVAN ZVARTNOTS,40.15,44.38,854.0
38507,KRASNOVODSK,40.05,53.0,89.0
38880,ASHKHABAD,37.97,58.33,228.0
40430,AL MADINAH,24.55,39.7,654.0
40719,RASHT,37.2,49.63,37.0
40762,TORBAT-HEYDARIEH,35.27,59.22,1333.0
40800,ESFAHAN,32.47,51.72,1550.0
40875,BANDARABBASS,27.22,56.37,10.0
41184,RAS AL KHAIMAH,25.62,55.93,31.0
41218,AL AIN AIRPORT,24.27,55.6,265.0
41253,RUSTAQ,23.42,57.43,322.0
41257,SAMAIL,23.3,57.93,414.0
41264,ADAM,22.38,57.52,285.0
41288,MASIRAH,20.67,58.9,19.0
41315,QAIROON HAIRITI,17.25,54.08,878.0
41640,LAHORE CITY,31.55,74.33,214.0
41923,DHAKA,23.77,90.38,8.0
42260,AGRA,27.15,77.97,168.0
42867,NAGPUR SONEGAON,21.1,79.05,308.0
43371,THIRUVANANTHAPURAM,8.48,76.95,60.0
43555,MALE,4.2,73.53,2.0
44434,POKHARA,28.2,83.98,827.0
45011,MACAO,22.2,113.53,57.0
47050,ANJU,39.62,125.65,34.0
47105,KANGNUNG,37.75,128.88,27.0
47127,CHUNGJU,36.97,127.95,113.0
47143,TAEGU,35.88,128.62,58.0
47189,SOGWIPO,33.23,126.57,52.0
47575,AOMORI / HONSHU,40.82,140.77,3.0
47610,NAGANO,36.67,138.18,418.0
47772,OSAKA,34.68,135.52,23.0
47830,MIYAZAKI,31.92,131.42,6.0
48062,SITTWE,20.13,92.88,4.0
48455,BANGKOK,13.73,100.57,3.0
48550,KOH SAMUI,9.45,100.03,4.0
48620,SITIAWAN,4.22,100.7,7.0
48855,DA NANG,16.03,108.18,7.0
50774,YICHUN (NORTH),47.72,128.9,232.0
51709,KASHI,39.47,75.98,1291.0
52436,YUMENZHEN,40.27,97.03,1527.0
53513,LINHE,40.77,107.4,1041.0
54161,CHANGCHUNG,43.9,125.22,231.0
54423,CHENGDE,40.97,117.92,374.0
54527,TIANJIN,39.1,117.17,5.0
54843,WEIFANG,36.7,119.08,31.0
55591,LHASA,29.67,91.13,3650.0
56778,KUNMING/WUJIABA,25.02,102.68,1892.0
57411,NANCHONG,30.8,106.08,310.0
57598,YINING,29.03,114.58,147.0
57816,GUIYANG,26.48,106.65,1222.0
58040,GANYU,34.85,119.13,10.0
58424,ANQING,30.53,117.05,20.0
58752,RUI'AN,27.78,120.65,38.0
59134,XIAMEN,24.48,118.08,139.0
59431,NANNING,22.82,108.35,126.0
59663,YANGJIANG,21.87,111.97,22.0
60015,TENERIFE NORTE,28.47,-16.32,632.0
60035,FUERTEVENTURA,28.45,-13.87,22.0
61052,NIAMEY/DIORI HAMANI,13.48,2.17,223.0
61701,BANJUL/YUNDUM,13.35,-16.8,36.0
61902,ASCENSION,-7.97,-14.4,86.0
62259,TAZERBO,25.8,21.13,260.0
62423,FARAFRA,27.07,27.98,82.0
62730,KASSALA,15.47,36.4,500.0
63658,SOROTI,1.72,33.62,1123.0
63791,KILIMANJARO AIRPORT,-3.42,37.07,891.0
63980,SEYCHELLES INT.,-4.67,55.52,3.0
64390,BUJUMBURA,-3.32,29.32,782.0
64650,BANGUI,4.4,18.52,365.0
65046,KANO,12.05,8.53,476.0
65387,LOME,6.17,1.25,20.0
65545,BONDOUKOU,8.05,-2.78,369.0
66160,LUANDA,-8.85,13.23,74.0
67083,ANTANANARIVO,-18.8,47.48,1279.0
67315,VILANCULOS,-22.1,35.32,20.0
67693,CHILEKA,-15.68,34.97,766.0
67853,HWANGE NATIONAL PARK,-18.63,27.0,1079.0
68032,MAUN,-19.98,23.42,945.0
68212,HARDAP,-24.53,17.93,1108.0
68312,KEETMANSHOOP,-26.53,18.12,1067.0
68461,BETHLEHEM AIRPORT,-28.25,28.33,1686.0
68588,DURBAN,-29.97,30.95,8.0
68842,PORT ELIZABETH,-33.98,25.6,60.0
68928,MOSSEL BAY,-34.18,22.15,59.0
70261,FAIRBANKS/INT.,64.82,-147.87,132.0
71060,CAMSELL RIVER N.W.T.,65.62,-118.12,230.0
71122,BANFF,ALTA.,51.18,-115.55,1397.0
71474,CLINTON,B.C.,51.13,-121.5,1057.0
71624,TORONTO,43.67,-79.63,173.0
71707,SYDNEY,N.S.,46.17,-60.05,56.0
71801,ST.JOHNS NEUFUNDL.,47.62,-52.73,134.0
71816,GOOSE BAY NF.,53.32,-60.42,46.0
71869,PRINCE ALBERT SASK.,53.22,-105.67,428.0
71893,COMOX B.C.,49.72,-124.9,24.0
71926,BAKER LAKE N.W.T.,64.3,-96.08,18.0
72201,KEY WEST,24.55,-81.75,2.0
72206,JACKSONVILLE,30.5,-81.7,9.0
72218,AUGUSTA BUSH FLD.,33.37,-81.97,44.0
72231,NEW ORLEANS,29.98,-90.25,1.0
72254,AUSTIN,30.3,-97.7,193.0
72267,LUBBOCK 18.,33.65,-101.82,996.0
72290,SAN DIEGO/LINGBERG,32.73,-117.17,5.0
72314,CHARLOTTE/DOUG. NC,35.22,-80.93,228.0
72351,WICHITA FALLS 18.,33.97,-98.48,309.0
72374,WINSLOW,35.03,-110.72,1505.0
72403,WASHINGTON/DULLES,38.95,-77.45,95.0
72408,PHILADELPHIA INT.,39.88,-75.25,4.0
72434,ST. LOUIS,38.75,-90.37,174.0
72476,GRAND JUNCTION,CO.,39.12,-108.52,1481.0
72502,NEWARK,40.7,-74.17,5.0
72520,PITTSBURGH INT.,40.5,-80.22,367.0
72537,DETROIT,42.23,-83.33,195.0
72565,DENVER INT.,39.87,-104.67,1656.0
72606,PORTLAND INT.,43.65,-70.32,23.0
72662,RAPID CITY,44.05,-103.07,970.0
72745,DULUTH INT.,46.83,-92.18,436.0
72785,SPOKANE/INT. WA.,47.63,-117.53,721.0
76405,LA PAZ (MEX.),24.27,-110.42,18.0
76654,MANZANILLO,COL.,19.05,-104.32,3.0
76805,ACAPULCO,16.83,-99.93,3.0
78264,SANTIAGO DE CUBA,19.97,-75.85,55.0
78460,SANTIAGO INT.,19.47,-70.7,183.0
78526,SAN JUAN,18.43,-66.0,3.0
78762,JUAN SANTAMARIA,10.0,-84.22,920.0
78897,LE RAIZET,GUADELOUPE,16.27,-61.52,11.0
78962,CROWN POINT,11.15,-60.83,3.0
80022,CARTAGENA/RAFAEL NU.,10.45,-75.52,1.0
80222,BOGOTA,4.72,-74.15,2547.0
81405,CAYENNE/FR.GUYANA,4.83,-52.37,8.0
82332,MANAUS,-3.15,-59.98,84.0
82899,RECIFE/INTL.,-8.13,-34.92,19.0
83362,CUIABA/INTL.,-15.65,-56.1,187.0
83483,PIRAPORA,-17.35,-44.95,505.0
83766,LONDRINA,-23.38,-51.18,566.0
83971,PORTO ALEGRE/INTL.,-30.0,-51.18,3.0
84377,IQUITOS,-3.75,-73.25,125.0
84735,JULIACA,-15.47,-70.17,3826.0
85245,SANTA CRUZ/EL TROMP.,-17.8,-63.18,418.0
85577,SANTIAGO,-33.43,-70.68,520.0
85934,PUNTA ARENAS,-53.0,-70.85,37.0
87222,CATAMARCA AERO,-28.6,-65.77,454.0
87506,MALARGUE AERO,-35.5,-69.58,1426.0
87692,MAR DEL PLATA,-37.93,-57.58,18.0
87860,COMODORO RINADAVIA,-45.78,-67.5,58.0
89002,NEUMAYER,-70.67,-8.25,50.0
89055,MARAMBIO,-64.23,-56.72,198.0
89532,SYOWA,-69.02,39.58,18.0
89611,CASEY,-66.28,110.52,40.0
91190,KAHULUI,MAUI,20.9,-156.43,18.0
91517,HONIARA,-9.42,159.97,55.0
91765,PAGO PAGO/INT.AIRP.,-14.33,-170.72,3.0
92004,WEWAK W.O.,-3.58,143.67,4.0
93615,HOKITIKA,-42.72,170.98,45.0
94120,DARWIN,-12.4,130.87,31.0
94287,CAIRNS AIRPORT,-16.88,145.75,3.0
94326,ALICE SPRINGS,-23.8,133.9,537.0
94461,GILES (M.O.),-25.03,128.3,580.0
94637,KALGOORLIE BOULDER,-30.78,121.45,367.0
94743,MOUNT BOYCE AWS.,-33.62,150.27,1080.0
94802,ALBANY AIRPORT,-34.93,117.8,71.0
94969,LAUNCESTON,-41.42,147.12,5.0
95448,LEINSTER,-27.85,120.7,497.0
96035,MEDAN,3.63,98.88,10.0
96471,KOTA KINABALU,5.93,116.05,3.0
96933,SURABAYA/PERAK,-7.22,112.72,3.0
97180,UJUNG PANDANG/HASAN.,-5.07,119.55,14.0
98328,BAGUIO,16.4,120.6,1500.0
98536,ROMBLON,12.58,122.28,46.0
98753,DAVAO,7.13,125.65,17.0
23226,VORKUTA,67.5,63.97,133.0
28224,PERM,58.0,56.33,131.0
28900,SAMARA/KURUMOCH,53.5,50.15,145.0
35078,ATBASAR,51.82,68.37,134.0
35796,BALKHASH,46.88,75.0,129.0
36821,BAKANAS,44.83,76.27,134.0
37395,KUTAISI,42.25,42.63,135.0
37609,ASHOTSK,41.03,43.88,136.0
37704,VANADZOR,40.83,44.43,148.0
37749,GEOKCHAY,40.65,47.75,127.0
37871,ARTASHAT,39.93,44.52,135.0
38111,AKTAU,43.63,51.18,138.0
38328,SHYMKENT (CHIMKENT),42.32,69.7,131.0
38392,DASHOGUZ (TASHAUZ),41.75,59.82,130.0
38511,CHAGYL,40.78,55.33,134.0
38611,NAMANGAN,40.98,71.58,474.0
38656,YERBENT,39.32,58.6,129.0
38713,URA-TYUBE,39.9,68.98,132.0
38851,RASHT,39.0,70.3,139.0
38911,KERKI,37.83,65.2,128.0
38987,KUSHKA,35.28,62.35,130.0
41216,ABU DHABI,24.43,54.47,5.0
43296,BANGALORE,12.95,77.63,888.0
64810,MALABO / BIOKO ISL.,3.75,8.77,50.0
72356,TULSA (INT. AIRP.),36.2,-95.88,207.0
72677,BILLINGS (LOGAN INT.,45.8,-108.55,1092.0
83065,PALMAS,-10.28,-48.37,236.0
83424,GOIÂNIA,-16.63,-49.22,747.0
83583,BELO HORIZONTE,-19.85,-43.95,785.0
83722,BAURU/AREALVA,-22.35,-49.05,615.0
83840,CURITIBA,-25.53,-49.18,911.0
83937,SANTA MARIA,-29.72,-53.7,85.0
87585,BUENOS AIRES,-34.58,-58.48,24.0
01149,BASMOEN,66.33,14.1,34.0
01290,NAMSOS,64.47,11.58,2.0
02086,LAINIO,67.77,22.35,315.0
02196,HAPARANDA,65.83,24.15,5.0
02911,VAASA,63.05,21.77,5.0
04339,SCORESBYSUND,70.48,-21.97,65.0
23074,DUDINKA,69.4,86.17,19.0
28429,OKTJABRSKI,56.52,57.2,229.0
29634,NOVOSIBIRSK,55.03,82.9,162.0
34122,VORONEZ,51.65,39.25,149.0
36927,BALYKTSCHY (RYBACHE),42.47,76.18,137.0
37260,SUHUMI,42.87,41.13,13.0
37416,CHINVALY,42.23,43.98,871.0
37566,SAGAREDZO,41.73,45.33,806.0
37693,STEPANAVAN,41.0,44.4,140.0
37893,AGDAM,39.98,46.93,131.0
37972,BILASUVAR,39.47,48.55,131.0
40001,KAMISHLI,37.05,41.22,455.0
40623,SULAIMANIYA,35.55,45.45,853.0
40913,KUNDUZ,36.67,68.92,433.0
40948,KABUL/AIRPORT,34.55,69.22,1791.0
41275,QARN ALAM,21.38,57.05,133.0
41480,ADEN,12.67,45.03,3.0
42295,DARJEELING,27.05,88.27,2127.0
43372,TRIVANDRUM AIRPORT,8.47,76.95,4.0
47166,MOKPO,34.75,126.38,4.0
47588,YAMAGATA,38.25,140.35,153.0
47616,FUKUI,36.05,136.23,7.0
47670,YOKOHAMA,35.43,139.65,39.0
47721,FUJI AB,35.32,138.87,680.0
47789,HIROSHIMA AIRPORT,34.43,132.92,331.0
47855,NAGASAKI AIRPORT,32.92,129.92,2.0
48625,IPOH,4.57,101.1,39.0
48900,SAIGON,10.82,106.67,5.0
54774,WEIHAI,37.5,122.12,61.0
58343,CHANGZHOU,31.77,119.95,15.0
61223,TOMBOUCTOU,16.72,-3.0,263.0
61967,DIEGO GARCIA,-7.3,72.4,1.0
62790,NYALA,12.05,24.88,655.0
63021,ASMARA,15.28,38.92,2325.0
63270,KISIMAYU,-0.37,42.43,10.0
64008,BASANKUSU,1.22,19.8,360.0
67113,MAHANORO,-19.83,48.8,5.0
67964,BULAWAYO,-20.15,28.62,1343.0
68262,PRETORIA EENDRACHT,-25.75,28.18,1308.0
70026,BARROW/W.POST W.ROG.,71.3,-156.78,13.0
71620,KINGSTON,44.22,-76.6,93.0
71852,WINNIPEG INT.AIRPORT,49.9,-97.23,239.0
71913,CHURCHILL,58.73,-94.07,28.0
72228,BIRMINGHAM-SHUTTLESW,33.55,-86.77,198.0
72304,CAPE HATTERAS, NC.,35.27,-75.55,2.0
72467,ASPEN,39.22,-106.87,2382.0
72493,OAKLAND INT.,37.75,-122.22,4.0
72554,OMAHA/OFFUTT AFB.,41.12,-95.9,315.0
72670,CODY/MUN.WY.,44.52,-109.02,1551.0
76394,MONTERREY,25.87,-100.23,448.0
78119,SOUTH CAICOS,21.52,-71.53,4.0
78325,CASA BLANCA,23.17,-82.35,50.0
78373,CIUDAD HABANA,22.97,-82.38,78.0
78470,SAN JUAN D.L. MAGUA.,18.82,-71.3,415.0
78555,ST. THOMAS,18.33,-64.97,3.0
78760,PUNTARENAS,9.97,-84.83,5.0
78946,CASTRIES,14.03,-61.02,55.0
80416,CARACAS,10.5,-66.88,835.0
82191,BELEM,-1.45,-48.47,10.0
82317,TEFÉ,-3.37,-64.7,47.0
82411,TABATINGA,-4.25,-69.93,85.0
82564,IMPERATRIZ,-5.53,-47.48,123.0
82610,EIRUNEPÉ,-6.67,-69.87,104.0
82798,JOÃO PESSOA,-7.1,-34.85,7.0
82984,PETROLINA,-9.37,-40.57,375.0
83242,LENÇÓIS,-12.55,-41.38,439.0
83470,RIO VERDE,-17.92,-50.92,727.0
83611,CAMPO GRANDE/INTL.,-20.45,-54.62,583.0
83659,DOURADOS,-22.23,-54.82,452.0
83716,PRESIDENTE PRUDENTE,-22.12,-51.38,436.0
83767,MARINGÁ,-23.42,-51.95,542.0
83818,SANTOS AEROPORTO,-23.93,-46.3,3.0
83883,CHAPECO,-27.08,-52.63,687.0
83942,CAXIAS DO SUL,-29.2,-51.2,751.0
85445,LA ESCONDIDA,-24.28,-69.13,3136.0
86626,SINOP,-11.98,-55.57,371.0
86816,BARRETOS/CHAFEI AMS.,-20.58,-48.6,578.0
91366,KWAJALEIN/BUCHOLZ,8.73,167.73,2.0
91930,BORA-BORA,-16.45,-151.75,4.0
93436,WELLINGTON AIRPORT,-41.33,174.8,12.0
94387,BUNDABERG (BINGERA),-24.9,152.32,27.0
94669,PORT PIRIE,-33.18,138.02,3.0
96059,PRAPAT-SIBISAMONT.,2.17,98.93,1200.0
97390,DILLI/AIRPORT,-8.57,125.57,6.0
F9405,CALDAS NOVAS,-17.73,-48.62,685.0
F9409,JAGUARUNA,-28.68,-48.07,37.0
F9413,SANTO ÂNGELO,-28.28,-54.17,322.0
F9417,VAG,-21.58,-45.47,923.0
F9421,BELO HORIZONTE AIRP.,-19.33,-43.97,828.0
F9425,ARACATI,-4.57,-37.8,36.0
F9429,PATO BRANCO,-26.22,-52.7,822.0
F9433,GLAUBER DE ANDRADE,-15.9,-40.92,894.0
P0003,MAURITIUS STRAND,-20.3,57.5,0.0
P0015,PUERTO VALLARTA,20.5,-105.25,5.0
P0047,BANAUE/NORD-LUZON,17.02,121.0,1800.0
P0317,PARK CITY,40.65,-111.5,2117.0
P0321,WESTL. LOS ANGELES,32.0,-119.0,0.0
P0340,GONAIVES,19.45,-72.68,6.0
P0345,NT.P.SIERRA BAHORUCO,18.25,-71.67,0.0
P0398,FUNAESDALEN,62.5,12.6,582.0
P0407,BEAR MOUNTAIN,35.18,-118.62,2000.0
P0480,CHUBU CENTRAIR,34.85,136.8,4.0
P0520,SAO SEBASTIAO,-9.93,-36.55,228.0
P0528,SAO LUIZ,-24.1,-53.23,360.0
P0568,TOLUCA, MEX.,19.27,-99.68,2720.0
P0613,COCHIN,10.15,76.4,9.0
P0650,DIASS-THIES AIRPORT,14.67,-17.07,88.0
W1655,16N55W,16.0,-55.0,0.0
W1965,WINDW.INSELN-W,19.0,-65.0,0.0
W2520,SWL.KANAREN,25.0,-20.0,0.0
W2918,NDL.LA PALMA,29.0,-18.0,0.0
W4325,GEBIET 42,42.97,-24.82,0.0
W4835,GEBIET 48,47.52,-35.37,0.0
W5215,GEBIET 51,52.13,-15.13,0.0
W5335,GEBIET 53,52.88,-35.42,0.0
W5646,GEBIET 59,56.47,-45.58,0.0
W5735,GEBIET 58,57.02,-35.48,0.0
W5812,WESTL.HEBRIDEN,57.57,-12.05,0.0
W5922,PENTL-FARV2,59.03,-21.72,0.0
W6015,PENTL-FARV1,60.0,-15.0,0.0
W6138,SE-GROENLAND,61.18,-38.5,0.0
W7060,DAVISSTR2,70.0,-60.0,0.0
E6300,63NORD00OST,63.07,0.12,0.0
E6524,BOTTENWIEK,65.0,23.52,0.0
E7225,NORDKAP,72.15,25.28,0.0
S4450,ATLANTIK SUED1,-44.0,-50.0,0.0
F9752,FUJAIRAH INTL,25.12,56.32,47.0
89507,KOHNEN,-75.0,0.0,2892.0
01452,KRISTIANSAND,58.2,8.08,17.0
02513,GOETEBORG,57.7,12.0,5.0
02636,MALMO/STURUP,55.55,13.37,106.0
03017,KIRKWALL,58.95,-2.9,26.0
03158,CHARTERHALL,55.72,-2.38,112.0
03318,BLACKPOOL,53.77,-3.03,10.0
03520,SHOBDON,52.25,-2.88,99.0
03772,LONDON,51.48,-0.45,24.0
03895,JERSEY-AIRPORT,49.22,-2.2,84.0
06052,THYBORON,56.72,8.22,2.0
06242,VLIELAND,53.25,4.92,11.0
06375,VOLKEL,51.65,5.7,22.0
06490,SPA/LA SAUVENIERE,50.48,5.92,470.0
06620,SCHAFFHAUSEN,47.68,8.62,437.0
06637,MEIRINGEN,46.72,8.17,589.0
06659,PILATUS,46.98,8.25,2106.0
06680,SAENTIS,47.25,9.33,2502.0
06704,BIERE,46.53,6.33,684.0
06735,ADELBODEN,46.5,7.57,1320.0
06771,STABIO,45.83,8.93,353.0
06793,VALBELLA,46.77,9.55,1569.0
07027,CAEN,49.18,-0.45,67.0
07125,DINARD APT,48.58,-2.07,58.0
07197,COLMAR,47.92,7.4,211.0
07299,BASEL-MLH.,47.6,7.52,270.0
07486,GRENOBLE,45.37,5.33,384.0
07622,AUCH,43.68,0.6,121.0
07747,PERPIGNAN,42.73,2.87,43.0
08025,BILBAO,43.3,-2.93,42.0
08175,REUS,41.15,1.17,71.0
08360,ALICANTE,38.28,-0.55,43.0
08495,GIBRALTAR,36.15,-5.35,5.0
08554,FARO,37.02,-7.97,7.0
10028,ST. PETER ORDING,54.33,8.6,5.0
10113,NORDERNEY,53.72,7.15,11.0
10156,LUEBECK,53.82,10.7,14.0
10238,BERGEN-HOHNE,52.82,9.93,70.0
10291,ANGERMUENDE,53.03,14.0,56.0
10359,GARDELEGEN,52.52,11.38,47.0
10418,LUEDENSCHEID,51.25,7.63,387.0
10454,WERNIGERODE,51.85,10.77,234.0
10499,GOERLITZ,51.17,14.95,237.0
10544,WASSERKUPPE,50.5,9.93,921.0
10579,MARIENBERG,50.65,13.15,639.0
10646,NEUHUETTEN/SPESSART,50.02,9.42,340.0
10724,WEINBIET,49.38,8.12,553.0
10765,ROTH,49.22,11.1,388.0
10827,MESSSTETTEN,48.18,9.0,920.0
10875,MUEHLDORF,48.28,12.5,406.0
11008,ROHRBACH,48.57,14.0,602.0
11040,WIEN/UNTERLAA,48.13,16.42,201.0
11112,LANDECK,47.15,10.57,785.0
11155,FEUERKOGEL,47.82,13.72,1618.0
11221,KOEFLACH,47.07,15.08,463.0
11308,WARTH,47.25,10.18,1475.0
11423,PRIMDA,49.67,12.68,743.0
11624,CASLAV,49.93,15.38,242.0
11774,HOLESOV,49.32,17.57,224.0
11927,LUCENEC,48.33,19.73,214.0
12185,KETRZYN,54.07,21.37,107.0
12310,SLUBICE,52.35,14.58,21.0
12465,LODZ,51.73,19.4,187.0
12570,KIELCE,50.82,20.7,260.0
12830,VESZPREM,47.07,17.83,280.0
13168,NOVI SAD,45.33,19.85,86.0
13462,PODGORICA/GOLUBOBCI,42.37,19.25,33.0
14330,GOSPIC,44.55,15.37,564.0
14557,TUZLA,44.55,18.7,305.0
15235,FAGARAS,45.85,24.98,428.0
16020,BOZEN,46.47,11.33,241.0
16084,PIACENZA,44.92,9.73,134.0
16219,MONTE TERMINILLO,42.47,12.98,1874.0
16325,MARINA DI GINOSA,40.42,16.88,1.0
16597,MALTA,35.85,14.48,91.0
16682,ANDRAVIDA,37.92,21.28,10.0
16746,SOUDA/AIRPORT,35.48,24.12,146.0
17056,TEKIRDAG,40.98,27.55,3.0
17260,GAZIANTEP,37.08,37.37,705.0
26509,KLAIPEDA,55.7,21.15,10.0
33041,GOMEL,52.4,30.95,125.0
40180,TEL AVIV,32.0,34.9,40.0
60141,FES-SAIS,33.93,-4.98,579.0
60535,DJELFA,34.33,3.38,1180.0
60760,TOZEUR,33.92,8.1,87.0
A216,STRUCKLAHNUNGSHOERN,54.5,8.82,7.0
A653,PADENSTEDT (PONY-PAR,54.02,9.93,17.0
B258,TRIBSEES,54.08,12.78,7.0
B556,TETEROW,53.77,12.57,38.0
B926,MALK GOEHREN,53.22,11.37,31.0
E091,DROCHTERSEN,53.72,9.38,1.0
E235,BRAKE,53.35,8.5,1.0
E426,GROSSENKNETEN-AHL.,52.92,8.22,42.0
E601,RINGE-GROSSRINGE,52.6,6.9,13.0
E727,ROTHENFELDE, BAD,52.1,8.18,95.0
E799,CREMLINGEN-DESTEDT,52.23,10.72,160.0
E944,HERZBERG,51.63,10.37,238.0
F172,MITTENWALDE/UCKERMAR,53.18,13.65,72.0
F419,WUSTERWITZ,52.37,12.38,36.0
F660,MUENCHEHOFE,52.15,13.83,44.0
G005,BERLIN-MARZAHN,52.53,13.57,60.0
H174,BIELEFELD-DEPPENDORF,52.07,8.47,105.0
H361,BECKUM-UNTERBERG,51.72,8.05,120.0
H477,WUENNENBERG-EILERN,51.53,8.78,312.0
H591,BRILON-THÜLEN,51.42,8.65,457.0
H718,JUELICH (KLAERANLAGE,50.93,6.33,76.0
H889,BURBACH-WUERGENDORF,50.77,8.13,413.0
K017,HILGENROTH,50.73,7.65,295.0
K212,ROTH BEI PRUEM,50.3,6.38,593.0
K317,WEISSENSEIFEN,50.15,6.55,530.0
K431,MEISBURG,50.1,6.67,523.0
K550,ENTENPFUHL,49.9,7.58,610.0
K701,KIRF-BEUREN,49.57,6.45,325.0
K881,BAD DUERKHEIM,49.47,8.18,107.0
L113,KORBACH-RHENA,51.28,8.78,458.0
L286,SONTRA,51.05,9.92,365.0
L464,ALSFELD-EIFA,50.73,9.33,300.0
L631,MUENZENBERG-GAMBACH,50.45,8.73,155.0
L781,SODEN,BAD-SALMUENSTE,50.27,9.37,145.0
L926,LAUTERTAL/ODENWALD-R,49.72,8.68,208.0
M301,SUEDEICHSFELD-WENDEH,51.17,10.25,290.0
M557,BUCHA,50.87,11.5,310.0
M805,BIRX,50.53,10.05,745.0
N135,WINTERFELD-SALLENTHI,52.77,11.25,35.0
N426,WEISSENFELS-WENGELSD,51.27,12.05,92.0
N601,SCHIERKE,51.77,10.65,609.0
N977,ZEITZ,51.07,12.13,170.0
O322,GRIMMA-KLEINBOTHEN,51.18,12.77,134.0
O580,DUERRHENNERSDORF,51.07,14.62,332.0
O877,STUETZENGRUEN-HUNDSH,50.55,12.57,604.0
P032,AUBSTADT,50.33,10.45,304.0
P073,STEBEN, BAD,50.37,11.62,608.0
P122,HAMMELBURG,50.12,9.92,220.0
P173,PRESSECK,50.23,11.55,640.0
P222,ALTERTHEIM-OBERALTER,49.73,9.77,300.0
P266,LAUF/PEGNITZ (KLAERA,49.5,11.27,310.0
P306,COLMBERG-BINZWANGEN,49.38,10.37,434.0
P348,NEUMARKT/OBERPFALZ,49.28,11.45,420.0
P376,NEUNBURG VORM WALD-E,49.37,12.45,420.0
P422,ROTHSEE BEI ALLERSBE,49.22,11.18,376.0
P467,WIESENFELDEN-UTZENZE,49.03,12.55,680.0
P532,KOESCHING,48.83,11.48,416.0
P576,MOOS,KR. DEGGENDORF-,48.78,12.97,320.0
P626,DASING (KLAERANLAGE),48.38,11.07,460.0
P663,MAMMING-SCHNEIDERBER,48.62,12.62,447.0
P688,ROTTHALMUENSTER (LAN,48.37,13.18,387.0
P765,ISEN-WESTACH,48.2,12.03,550.0
P811,OBERSTAUFEN-THALKIRC,47.57,10.08,748.0
P856,HOLZKIRCHEN,47.88,11.7,685.0
P894,WAGING AM SEE-SCHNOE,47.97,12.77,470.0
P927,HINDELANG-UNTERJOCH,47.57,10.43,1015.0
P949,MITTENWALD/OBB.,47.43,11.27,923.0
P973,TEISENDORF-NEUKIRCHE,47.82,12.77,780.0
P991,PIDING,47.77,12.92,458.0
Q060,STOCKACH,47.87,9.02,532.0
Q221,EPPINGEN-ELSENZ,49.17,8.85,220.0
Q340,VAIHINGEN/ ENZ,48.92,8.95,200.0
Q411,BADEN-BADEN-GEROLDSA,48.73,8.25,240.0
Q522,BAIERSBRONN-MITTELTA,48.52,8.32,596.0
Q651,HECHINGEN,48.38,8.98,522.0
Q716,SIMONSWALD-OBERSIMON,48.08,8.08,419.0
Q788,SIGMARINGEN-LAIZ,48.07,9.18,580.0
Q887,MUELLHEIM,47.82,7.63,273.0
Q951,SIPPLINGEN (SWN),47.82,9.1,705.0
Z909,SCHWARZENBERG,47.43,10.42,1355.0
Z932,SPITZINGSEE,47.67,11.88,1100.0
03930,LIVERPOOL,53.33,-2.87,26.0
10747,KAISERSBACH-CRONHUET,48.92,9.68,489.0
16090,VERONA,45.38,10.87,67.0
26544,DAUGAVPILS,55.87,26.62,134.0
26961,BOBRUISK,53.22,29.13,135.0
33325,ZHYTOMYR,50.28,28.67,136.0
33761,LYUBASHEVKA,47.85,30.27,139.0
03716,ST. ATHAN /WALES,51.4,-3.43,50.0
01347,SOGNDAL,61.15,7.13,497.0
02435,BORLANGE,60.43,15.5,145.0
02651,KRISTIANSTAD,55.92,14.08,23.0
03135,PRESTWICK,55.5,-4.6,20.0
03492,NORWICH-W.C.,52.63,1.3,14.0
03865,SOUTHAMPTON,50.9,-1.4,9.0
06062,SKIVE,56.55,9.17,23.0
06775,LUGANO,46.0,8.9,279.0
08227,MADRID,40.48,-3.45,607.0
10063,PUTTGARDEN,54.5,11.22,1.0
10272,WITTSTOCK,53.18,12.52,72.0
10382,BERLIN-TEGEL,52.57,13.32,37.0
10466,HALLE,51.52,11.95,96.0
10535,WAHLEN,50.82,9.13,349.0
10684,HOF/FLUGHAFEN,50.28,11.85,585.0
10947,MEMMINGEN,47.98,10.23,634.0
11172,MARIAZELL,47.77,15.32,875.0
12336,POWIDZ,52.37,17.85,113.0
14551,DOBOJ,44.73,18.1,146.0
16130,PARMA,44.82,10.28,50.0
16538,FONNI,40.12,9.25,1022.0
26215,ARENSBURG,58.22,22.52,3.0
33934,DZHANKOI,45.72,34.38,13.0
40184,JERUSALEM,31.78,35.22,757.0
40288,AL AZRAQ,31.83,36.82,527.0
60765,GABES,33.88,10.1,4.0
F9503,GUNDELFINGEN UMSPWK.,48.52,10.38,436.0
F9515,GRONAU WEST,51.32,7.28,36.0
F9527,WALBERBERG WEST,50.85,6.88,116.0
K1060,AURICH,53.45,7.47,4.0
K1445,HEIDE/HOLSTEIN,54.22,9.1,12.0
K1584,AROLSEN,51.38,9.05,220.0
K2259,MAYEN,50.33,7.23,230.0
K2561,FRANKFURT/PALMENGAR.,50.13,8.65,107.0
K2649,KOENIGSTEIN/TS.,50.18,8.48,388.0
K2718,KIRCHHEIM/TECK,48.67,9.42,289.0
K2761,BONNDORF,47.82,8.35,876.0
K2890,RASTATT,48.87,8.18,116.0
K3406,BAD FRANKENHAUSEN/KY,51.35,11.1,130.0
K4036,KRONACH,50.23,11.33,305.0
K4102,HEIDENHEIM,48.67,10.13,500.0
K4179,KREUTH,47.65,11.75,793.0
K4501,MALLERSDORF/NDB.,48.78,12.25,410.0
N0101,BALDERSCHWANG,47.47,10.1,1050.0
N0197,GOTTMADINGEN,47.73,8.78,430.0
N0311,GUTACH/BR.,48.12,8.02,302.0
N0474,WERTINGEN,48.57,10.68,430.0
N0674,ABENSBERG-SANDHARL.,48.83,11.82,380.0
N0778,NEUSTADT/DONAU,48.87,11.77,360.0
N1107,NEUFFEN,48.55,9.4,480.0
N1265,HOHENFELS,49.2,11.85,423.0
N1429,NEUKIRCHEN-SEIGHS.,50.92,9.35,380.0
N2028,FRIEDEBURG-HORSTEN,53.45,7.93,3.0
N2173,PASEWALK,53.5,14.0,10.0
N2254,RUESSELSHEIM,49.98,8.45,87.0
N2395,WOLGAST,54.05,13.78,8.0
N2603,BODENKIRCHEN-AICH,48.43,12.4,464.0
N3002,MUENCHBERG,50.2,11.8,545.0
N3114,COESFELD,51.95,7.18,84.0
N3334,GRAEFENBERG,49.65,11.25,477.0
N3729,BISCHOFSHEIM/RHOEN,50.4,10.0,465.0
N4116,HANAU,50.1,8.95,102.0
N4359,LEHRTE,52.38,9.98,60.0
N4655,BAD GANDERSHEIM,51.87,10.03,154.0
N5250,RUDOLSTADT,50.73,11.37,193.0
N5791,SANGERHAUSEN,51.48,11.32,185.0
N6241,MENGERSKIRCHEN,50.57,8.15,412.0
N7012,BAD OLDESLOE,53.82,10.4,15.0
N7314,WEISSWASSER,51.5,14.62,155.0
N7651,ORANIENBURG,52.75,13.2,35.0
N8204,BRUEHL,50.83,6.92,61.0
N8403,BAD MUENSTEREIFEL,50.55,6.77,320.0
N8625,STADERSAND,53.63,9.53,5.0
N8829,LUEDENSCHEID,51.22,7.63,444.0
N9154,SUHL,50.62,10.67,505.0
N9530,HALTERN,51.73,7.2,40.0
P0004,AACHEN-RICHTERICH,50.82,6.05,240.0
P0016,GR.FELDBG./TS.,50.23,8.47,880.0
P0028,HOECHSTADT,49.68,10.83,272.0
P0040,POTSDAM-ZENTRUM/LUB,52.4,13.07,31.0
P0064,PLOECKENSTEIN,48.78,13.87,1378.0
P0076,BRIXEN,46.72,11.67,600.0
P0088,ANNOT,43.97,6.7,600.0
P0101,OF-POST D1,49.2,8.4,259.0
P0113,OF-POST H4,50.95,9.75,351.0
P0126,LINDEWITT,54.72,9.15,20.0
P0138,HOHEGING, NT,52.9,8.12,15.0
P0150,ST.PETER-ORDING,54.32,8.68,2.0
P0163,BELLAGIO,45.98,9.27,200.0
P0176,BUERSTADT,49.63,8.45,90.0
P0188,PUDERBACH,50.58,7.55,203.0
P0200,LABOE,54.4,10.25,34.0
P0212,KIRCHHERTEN,51.0,6.47,88.0
P0224,BAESWEILER,50.9,6.18,110.0
P0239,MARBELLA,36.52,-4.88,30.0
P0251,LENNINGEN,48.57,9.5,360.0
P0263,PFAFFENHOFEN,48.3,11.3,428.0
P0278,NEUNKIRCHEN/SAARLAND,49.2,7.1,224.0
P0291,DOEBELN,51.07,13.07,210.0
P0305,SONNENBERG,47.88,16.48,484.0
P0330,HORN,51.88,8.95,210.0
P0346,GETTORF,54.42,9.98,10.0
P0358,ABLASS,51.22,12.95,150.0
P0370,ISOLA 2000,44.13,7.2,2000.0
P0383,SCHNALSTAL,46.73,10.9,2000.0
P0395,WOLFSBERG,46.78,14.98,463.0
P0423,SPAIN_NEW_02,43.25,-4.58,758.0
P0435,GRUEPPENBUEHREN,53.07,8.55,33.0
P0449,AMPUGNANO,43.25,11.25,194.0
P0461,BORAS,57.5,13.6,219.0
P0473,AESNEN,56.6,14.8,160.0
P0497,MELCHSEE-FRUTT,46.77,8.27,1920.0
P0509,SASSENBERG,51.98,8.05,60.0
P0521,LOVIISA,60.45,26.22,1.0
P0533,GUNDREMMINGEN,48.52,10.4,433.0
P0545,ASTI,44.9,8.22,122.0
P0557,LINARES,38.08,-3.63,411.0
P0602,GLADBECK,51.58,6.97,64.0
P0627,BEVERGERN,52.27,7.6,45.0
P0639,TWIST,52.63,7.12,20.0
W3609,CABO S.VICENTE,36.48,-9.0,0.0
W4505,NDL.GIJON,44.6,-5.13,0.0
W5011,FASTNET,50.45,-10.55,0.0
W5602,FORTH,56.48,-1.52,0.0
E3231,PORT-SAID,32.03,31.22,0.0
E3534,CRUSADE-N,35.28,34.47,0.0
E3712,PANTELLERIA,37.0,12.0,0.0
E3826,SAMOSSEE,37.9,26.2,0.0
E4023,AEGAEIS-NW.,39.75,23.0,0.0
E4218,ADRIA-SUED,41.97,17.77,0.0
E4435,SCHW.MEER6,43.85,35.25,0.0
E5305,IJSSELMEER,52.7,5.4,0.0
E5409,ELBEMUENDUNG,54.0,8.1,0.0
E5511,BELTE/SUND,55.5,10.73,0.0
E5616,KALMAR-SUND-S,56.2,16.2,0.0
E5820,ZENTR.OSTS.,57.97,20.18,0.0
E6026,FINN.MEERB.,60.0,26.0,0.0
A512,HEIDE,54.17,9.07,9.0
E726,NEMDEN,52.22,8.2,130.0
F618,FLAEMING,52.03,12.6,110.0
G214,KOESLAU,50.07,10.67,400.0
G237,SCHWARZENAU,49.8,10.22,200.0
G258,EDELSFELD,49.58,11.7,528.0
G280,SOMMERTSHOF,49.27,11.67,549.0
G307,KALTENBERG,48.85,12.05,420.0
G331,EDELSHAUSEN,48.6,11.28,400.0
G354,ROTTHALMUENSTER,48.37,13.2,360.0
G376,BERGHAM,48.08,12.25,487.0
G406,DOBITSCHEN,50.93,12.32,248.0
G421,OBERWEISSBACH,50.58,11.13,682.0
G482,TOITZ,53.97,12.98,7.0
H401,GELDERN-WALBECK,51.5,6.23,40.0
H746,MOITZFELD,50.97,7.18,133.0
J736,BALTERSWEILER,49.48,7.17,289.0
K250,MAYEN,50.32,7.23,275.0
K471,SIMMERN-WAHLBACH,50.0,7.6,445.0
K597,NIERSTEIN,49.87,8.33,169.0
K695,EICH,49.75,8.38,89.0
K892,SCHIFFERSTADT,49.42,8.35,102.0
L314,ANGELBURG-FRECHENHAU,50.82,8.43,435.0
L641,ECHZELL SCHWALHEIM,50.4,8.9,130.0
L912,ALLMENDFELD,49.77,8.52,90.0
N013,ROSSLA,51.5,11.33,100.0
O252,SCHOENBORN,51.32,13.72,174.0
P159,HIRSCHAID,49.82,11.02,268.0
P452,TB EICHELBERG,49.2,12.12,415.0
P805,ALLGAEUER TOR,47.87,10.28,720.0
Q247,BESIGHEIM,48.98,9.18,300.0
X001,SWIS-PUNKT,51.17,9.5,160.0
X013,ELBEN,50.75,7.83,500.0
X025,SWIS-PUNKT,50.25,11.67,700.0
X037,SWIS-PUNKT,51.83,10.67,700.0
X050,SWIS-PUNKT,53.83,13.5,50.0
X088,SWIS-PUNKT,51.67,10.5,700.0
X102,SWIS-PUNKT,49.5,11.08,320.0
X115,SWIS-PUNKT,51.75,9.57,500.0
X127,SWIS-PUNKT,47.67,9.52,449.0
X139,SWIS-PUNKT,49.47,8.52,103.0
X151,SWIS-PUNKT,49.22,7.4,377.0
X211,SWIS-PUNKT,47.65,11.47,1100.0
X223,SWIS-PUNKT,48.57,12.72,500.0
X235,SWIS-PUNKT,49.25,10.88,500.0
X247,SWIS-PUNKT,49.6,10.3,500.0
X259,SWIS-PUNKT,50.52,10.08,700.0
X271,SWIS-PUNKT,48.8,8.47,500.0
X283,SWIS-PUNKT,47.62,7.83,500.0
X295,SWIS-PUNKT,49.55,7.53,500.0
X307,SWIS-PUNKT,50.58,6.48,500.0
X319,SWIS-PUNKT,50.38,8.53,500.0
X331,SWIS-PUNKT,51.95,9.12,300.0
X344,SWIS-PUNKT,51.28,8.67,700.0
X356,SWIS-PUNKT,51.58,9.25,300.0
X368,SWIS-PUNKT,51.78,10.55,900.0
X380,SWIS-PUNKT,51.68,10.7,500.0
X396,SWIS-PUNKT,50.27,10.77,300.0
X408,SWIS-PUNKT,49.88,12.03,900.0
X420,SWIS-PUNKT,48.67,13.52,500.0
X433,SWIS-PUNKT,50.75,13.65,700.0
X445,SWIS-PUNKT,50.73,11.17,500.0
X457,SWIS-PUNKT,51.62,12.37,100.0
X469,SWIS-PUNKT,51.97,13.42,100.0
X481,BOHLENDORF,54.6,13.28,7.0
Z923,LINDERSPITZE-RINNE,47.43,11.3,2300.0
F9706,FARNBOROUGH,51.28,-0.78,73.0
F9731,ISTANBUL AIRPORT,41.27,28.75,99.0
01481,MELSOM,59.23,10.35,26.0
02520,SATENAS,58.43,12.72,54.0
02664,RONNEBY,56.27,15.28,58.0
03026,STORNOWAY,58.22,-6.32,9.0
03162,ESKDALEMUIR,55.32,-3.2,242.0
03321,HAWARDEN,53.17,-2.98,10.0
03560,BEDFORD,52.22,-0.48,85.0
03781,KENLEY,51.3,-0.08,170.0
03917,BELFAST,54.65,-6.22,81.0
06060,KARUP,56.3,9.12,52.0
06260,DE BILT,52.1,5.18,2.0
06380,MAASTRICHT,50.92,5.78,114.0
06496,ELSENBORN,50.47,6.18,564.0
06621,GUETTINGEN,47.6,9.28,440.0
06638,LANGNAU I.E.,46.93,7.82,745.0
06660,ZUERICH (TOWN/VILLE),47.38,8.57,556.0
06681,ST.GALLEN,47.43,9.4,779.0
06705,CHANGINS,46.4,6.23,430.0
06744,GRIMSEL-HOSPIZ,46.57,8.33,1980.0
06778,BUFFALORA,46.65,10.27,1968.0
06794,ROBBIA,46.35,10.07,1078.0
07028,LA HEVE,49.52,0.07,100.0
07130,RENNES,48.07,-1.73,37.0
07200,PENMARCH,47.8,-4.37,6.0
07306,LA ROCHE-SUR-YON,46.7,-1.38,90.0
07491,CHAMBERY - AIX,45.65,5.88,235.0
07630,TOULOUSE,43.63,1.37,152.0
07754,CALVI,42.53,8.8,46.0
08027,SAN SEBASTIAN/IGUEL.,43.3,-2.05,258.0
08181,BARCELONA,41.28,2.07,4.0
08373,IBIZA,38.87,1.38,17.0
08562,BEJA,38.02,-7.87,246.0
10033,FLENSBURG,54.83,9.5,27.0
10126,WITTMUNDHAVEN,53.55,7.67,8.0
10161,BOLTENHAGEN,54.0,11.18,15.0
10246,FASSBERG,52.92,10.18,75.0
10309,AHAUS,52.08,6.93,46.0
10361,MAGDEBURG,52.12,11.58,79.0
10424,WERL,51.58,7.88,85.0
10458,HARZGERODE,51.65,11.13,404.0
10500,GEILENKIRCHEN,50.97,6.05,90.0
10548,MEININGEN,50.57,10.38,450.0
10582,ZINNWALD-G.,50.73,13.75,877.0
10648,MICHELSTADT-V.,49.72,9.1,453.0
10729,MANNHEIM,49.52,8.55,96.0
10771,KUEMMERSBRUCK,49.43,11.9,419.0
10836,STOETTEN,48.67,9.87,734.0
10895,FUERSTENZELL,48.55,13.35,476.0
11010,LINZ FL.,48.23,14.18,298.0
11053,RIED IM INNKREIS,48.22,13.48,431.0
11120,INNSBRUCK FL.,47.27,11.35,581.0
11157,AIGEN/ENNS,47.53,14.13,638.0
11231,KLAGENFURT FL.,46.65,14.33,448.0
11310,ISCHGL,46.98,10.32,2327.0
11438,TUSIMICE,50.38,13.33,322.0
11628,KRAMOLIN-KOSETICE,49.58,15.08,534.0
11782,OSTRAVA/MOSNOV,49.68,18.12,257.0
11933,STREBSKE PLESO,49.12,20.08,1354.0
12195,SUWALKI,54.13,22.95,184.0
12330,POSEN,52.42,16.83,86.0
12469,SULEJOW,51.35,19.87,188.0
12580,RZESZOW-JASIONKA,50.1,22.05,200.0
12843,BUDAPEST/LORINC,47.43,19.18,138.0
13262,LOZNICA,44.55,19.23,121.0
13489,VRANJE,42.55,21.92,433.0
14431,ZADAR,44.1,15.35,82.0
14640,LIVNO,43.83,17.02,724.0
15247,TIMISOARA,45.77,21.25,86.0
16021,PASSO ROLLE,46.3,11.78,2004.0
16088,BRESCIA/GHEDI,45.42,10.28,102.0
16230,PESCARA,42.43,14.2,10.0
16362,LAMEZIA TERME,38.9,16.25,15.0
16606,SERRAI,41.07,23.57,33.0
16684,SKYROS,38.97,24.48,27.0
16749,RHODOS,36.4,28.08,4.0
17060,ISTANBUL,40.97,28.82,48.0
26524,SIAULIAI,55.93,23.32,106.0
33261,KONOTOP,51.23,33.2,144.0
40199,EILAT,29.55,34.95,12.0
60150,MEKNES,33.88,-5.53,576.0
60566,GHARDAIA,32.4,3.8,468.0
60769,DJERBA,33.58,10.78,6.0
A226,HATTSTEDT,54.53,9.03,5.0
A699,TRAVEMUENDE,53.97,10.88,2.0
B308,KIRCHDORF/POEL,54.0,11.43,12.0
B587,RATHEBUR,53.73,13.78,10.0
B951,KRUEMMEL,53.27,12.72,64.0
E095,RUTHENSTROM,53.72,9.42,7.0
E246,SCHWANEWEDE-NEUENKIR,53.22,8.52,1.0
E438,BASSUM,52.87,8.7,40.0
E626,ALFHAUSEN,52.48,7.92,65.0
E732,HAMELN,52.08,9.38,68.0
E805,OTTENSTEIN,51.95,9.4,295.0
E950,HERZBERG-LONAU,51.68,10.37,340.0
F178,NEURUPPIN-GUEHLEN GL,53.05,12.77,89.0
F431,BERGE,52.62,12.78,40.0
F681,NEU MADLITZ,52.37,14.25,46.0
G006,BERLIN-KANISWALL,52.4,13.73,33.0
H203,KLEVE,51.77,6.1,46.0
H372,DELBRUECK,51.78,8.57,88.0
H492,BORGENTREICH,51.57,9.23,206.0
H606,HEINSBERG-SCHLEIDEN,51.03,6.1,57.0
H721,BEDBURG-WEILER HOHEN,51.02,6.52,101.0
H908,MONSCHAU-KALTERHERBE,50.52,6.22,535.0
K026,WALLMENROTH,50.78,7.83,172.0
K219,LISSENDORF,50.32,6.62,407.0
K318,DENSBORN,50.13,6.6,308.0
K440,MANDERSCHEID,50.1,6.8,413.0
K557,SEESBACH, KR. BAD KR,49.85,7.53,394.0
K711,OBERZERF,49.58,6.68,370.0
K918,ZWEIBRUECKEN (KLAERA,49.25,7.33,225.0
L121,TWISTETAL-MUEHLHAUS.,51.33,8.92,295.0
L291,ESCHWEGE,51.18,10.07,170.0
L483,HAUNETAL-WEHRDA,50.73,9.67,257.0
L635,BAD NAUHEIM,50.37,8.77,142.0
L803,RUEDESHEIM-PRESBERG,50.05,7.88,403.0
L930,REINHEIM,49.82,8.82,165.0
M348,DACHWIG,51.07,10.87,173.0
M565,BOBECK,50.9,11.8,344.0
M833,FRAUENWALD,50.58,10.87,768.0
N158,BALLERSTEDT,52.73,11.72,35.0
N435,BOTTMERSDORF-KLEIN G,52.02,11.42,83.0
N620,QUEDLINBURG,51.8,11.13,142.0
O025,BAD MUSKAU,51.57,14.7,125.0
O348,GARSEBACH BEI MEISSE,51.13,13.43,157.0
O598,BERTSDORF-HOERNITZ,50.9,14.75,270.0
O882,TANNENBERG,50.62,12.93,532.0
P033,BAD KOENIGSHOFEN,50.28,10.45,288.0
P079,LUDWIGSCHORGAST,50.12,11.57,336.0
P125,ARNSTEIN-MUEDESHEIM,49.97,9.92,220.0
P175,HEINERSREUTH-VOLLHOF,49.97,11.52,350.0
P228,BUETTHARD,49.62,9.88,263.0
P270,PLECH,49.65,11.47,443.0
P308,NEUBURG/KAMMEL-LANGE,48.32,10.38,495.0
P352,EDELSFELD,49.58,11.7,535.0
P379,RODING-NEUBAEU,49.23,12.42,388.0
P425,THALMAESSING,49.08,11.22,417.0
P468,AHOLFING,48.93,12.47,330.0
P535,INGOLSTADT (FLUSSMEI,48.77,11.45,360.0
P581,KIRCHBERG/NIEDERBAYE,48.9,13.13,683.0
P627,SCHROBENHAUSEN,48.55,11.28,409.0
P664,MARKLKOFEN (BETRIEBS,48.57,12.57,400.0
P689,POCKING,48.4,13.32,323.0
P768,EBERSBERG-HALBING,48.1,11.98,592.0
P817,KAUFBEUREN,47.87,10.6,716.0
P860,DEISENHOFEN, KREIS M,48.03,11.58,585.0
P903,LINDAU (SWN),47.53,9.68,397.0
P929,SCHWANGAU-HORN (LFW),47.58,10.72,796.0
P950,KRUEN,47.5,11.28,873.0
P974,ASCHAU-STEIN,47.73,12.3,680.0
P994,MARKTSCHELLENBERG,47.7,13.03,501.0
Q061,NOTZINGEN,48.67,9.47,325.0
Q222,KOENIGSBACH-STEIN, E,48.97,8.58,160.0
Q341,SACHSENHEIM,48.95,9.07,250.0
Q412,IHRINGEN,48.03,7.63,193.0
Q529,RIPPOLDSAU, BAD,48.42,8.33,493.0
Q655,BURLADINGEN-HAUSEN,48.3,9.07,682.0
Q731,ESCHBRONN-MARIAZELL,48.18,8.47,714.0
Q790,DEGGENHAUSERTAL-AZEN,47.8,9.42,708.0
Q891,ROT AN DER ROT-BUCH,47.97,10.02,690.0
Q976,FRIEDRICHSHAFEN,47.65,9.48,394.0
Z911,TEGELBERGBAHN,47.57,10.78,1720.0
Z934,WENDELSTEIN-SOIN,47.7,12.02,1580.0
06141,ABED,54.83,11.33,8.0
10840,ULM-MAEHRINGEN,48.45,9.92,593.0
16216,VITERBO,42.43,12.05,300.0
26603,NIDA,55.3,21.0,2.0
26966,ZHLOBIN,52.9,30.05,134.0
33393,LIVIV,49.8,23.97,323.0
33821,DUBASARI,47.28,29.13,135.0
07166,VATRY-AERO,48.78,4.17,179.0
01368,FAGERNES,61.0,9.3,822.0
02512,GOETEBORG,57.78,11.88,20.0
02680,HOBURG,56.92,18.15,40.0
03140,GLASGOW,55.87,-4.43,8.0
03495,COLTISHALL,52.77,1.35,20.0
03890,OXFORD,51.75,-1.27,68.0
06078,ANHOLT,56.7,11.55,7.0
07017,CAMBRAI,50.22,3.15,77.0
08307,POLLENSA,39.9,3.1,2.0
10122,JEVER,53.53,7.88,7.0
10273,BASEPOHL,53.73,12.93,53.0
10389,BERLIN-ALEX.,52.52,13.42,37.0
10487,DRESDEN-STADT,51.05,13.73,113.0
10536,FULDA,50.55,9.65,305.0
10714,ZWEIBRUECKEN,49.22,7.4,345.0
10980,WENDELSTEIN,47.7,12.02,1832.0
11174,ST.MICHAEL,47.33,15.0,580.0
12555,KATOWICE/PYRZOWICE,50.48,19.08,303.0
14653,SARAJEWO,43.82,18.33,510.0
16136,PASSO PORRETTA,44.02,11.0,1313.0
16549,CARLOFORTE / ISOLA,39.13,8.32,12.0
26231,PARNU-SAUGA,58.42,24.47,12.0
33990,JALTA,44.5,34.17,14.0
40292,ER RABBAH,31.27,35.75,920.0
F9504,HANEKENFÄHR UMSPWK.,52.48,7.3,27.0
F9516,SOONWALD WEST 1,50.33,7.5,237.0
F9528,VILLE OST 1,50.88,6.9,57.0
K1083,BORKUM,53.57,6.75,5.0
K1481,ELSFLETH,53.23,8.47,1.0
K1585,ARNSBERG,51.38,8.07,218.0
K2265,MANDERSCHEID,50.1,6.8,403.0
K2588,BAD SCHWALBACH,50.13,8.07,320.0
K2667,BEERFELDEN,49.57,8.97,450.0
K2719,WELZHEIM,48.88,9.63,510.0
K2765,BIBERACH,48.12,9.8,534.0
K2913,BOEBLINGEN,48.68,8.97,445.0
K3414,RASTENBERG,51.18,11.42,200.0
K4042,KULMBACH,50.1,11.45,330.0
K4105,NOERDLINGEN,48.85,10.5,425.0
K4181,SCHLIERSEE,47.73,11.85,780.0
K4503,LANDSHUT,48.53,12.13,391.0
N0113,LINDAU,47.55,9.73,400.0
N0214,BLUMBERG,47.85,8.53,707.0
N0332,MINDELHEIM,48.05,10.52,607.0
N0477,ACHERN,48.63,8.05,138.0
N0677,LANDAU/PFALZ,49.2,8.1,150.0
N0781,KELHEIM,48.92,11.88,354.0
N1120,ZITTAU,50.9,14.82,235.0
N1319,ALTENSTEIG-WART,48.62,8.65,586.0
N1441,SCHWALMSTADT,50.9,9.22,225.0
N2032,USLAR,51.67,9.63,190.0
N2193,LANDAU/ISAR,48.68,12.7,338.0
N2271,SCHOENBERG/NDB.,48.83,13.33,550.0
N2402,NIEHEIM,51.8,9.12,230.0
N2611,EGGENFELDEN,48.4,12.78,400.0
N3003,GEFREES,50.08,11.72,475.0
N3149,EBERN-EYRICHSHOF,50.12,10.78,285.0
N3360,STADELHOFEN,50.0,11.2,476.0
N3754,HAMMELBURG,50.12,9.9,184.0
N4123,EIBENSTOCK(TALSP.),50.53,12.6,546.0
N4365,ADELHEIDSDORF,52.55,10.05,41.0
N4838,ADENSTEDT,52.0,9.93,194.0
N5344,STROMBERG/HUNSRUECK,49.95,7.78,300.0
N5872,BAD DUERRENBERG,51.3,12.08,103.0
N6250,SCHMITTEN-TREISBERG,50.3,8.43,535.0
N7029,RATZEBURG,53.7,10.77,10.0
N7316,MERZIG,49.45,6.63,171.0
N7659,NAUEN,52.62,12.87,35.0
N8232,SALZWEDEL,52.87,11.15,23.0
N8408,SUDERBURG,52.9,10.43,70.0
N8631,RUETHEN,51.5,8.45,330.0
N8832,ISERLOHN-RODEN,51.37,7.67,222.0
N9227,WUENNENBERG,51.52,8.75,345.0
N9538,DORSTEN,51.67,6.98,33.0
P0017,GROSS UMSTADT,49.87,8.93,168.0
P0029,ISSUM,51.53,6.42,35.0
P0041,PREMNITZ/LUB,52.53,12.35,30.0
P0053,ANEMOLTER,52.5,9.08,39.0
P0065,GROSSER HOELLENGOGEL,47.75,13.67,2000.0
P0077,ROLLEPASS,46.3,11.8,1800.0
P0089,CROIX DE L ALPE,44.4,6.67,2590.0
P0102,OF-POST D2,47.9,9.9,576.0
P0114,OF-POST H5,50.45,9.2,318.0
P0127,SOELLMNITZ,50.95,12.15,311.0
P0139,ALTENBEKEN, MG,51.73,8.93,300.0
P0151,HALLIG HOOGE,54.57,8.53,2.0
P0164,DOMASO,46.15,9.35,200.0
P0177,WALD-MICHELBACH,49.57,8.83,330.0
P0189,ST.GOAR,50.15,7.72,80.0
P0201,SCHENEFELD,53.6,9.82,10.0
P0213,KERPEN,50.87,6.67,100.0
P0225,BERGHEIM,50.92,6.63,70.0
P0240,SAN FELIU,41.75,3.08,10.0
P0252,BILLIGHEIM,49.35,9.27,290.0
P0264,BRUCKMUEHL,47.88,11.92,512.0
P0279,SCHMELZ,49.43,6.85,230.0
P0292,WURZEN,51.37,12.73,124.0
P0306,WANK,47.5,11.13,1770.0
P0331,GOEHL,54.28,10.93,19.0
P0347,HARRISLEE,54.8,9.38,10.0
P0359,DORNA,51.77,12.7,106.0
P0371,MERIBEL,45.37,6.62,1400.0
P0384,ST.WALBURG,46.55,11.03,1100.0
P0409,MARSBERG-MEERHOF,51.53,8.83,371.0
P0424,SPAIN_NEW_03,43.52,-5.88,178.0
P0436,ARRAS,50.27,2.77,89.0
P0450,KISA,58.1,15.8,132.0
P0462,ALLEBERG,58.2,13.5,171.0
P0474,BOLMEN,56.9,13.4,168.0
P0498,MAURACH,47.42,11.75,930.0
P0510,SCHELKLINGEN,48.47,9.72,750.0
P0534,ESSENBACH,48.6,12.3,392.0
P0546,EGERSUND,58.45,6.02,27.0
P0570,VANNES MEUCON,47.72,-2.73,134.0
P0603,CALW,48.72,8.75,418.0
P0628,MAEKEL,52.68,8.48,35.0
P0640,NORDHORN,52.48,7.05,20.0
W3701,SDL.CARTAGENA,37.0,-1.25,0.0
W4606,BISKAYA,46.37,-5.68,0.0
W5105,LUNDY,51.48,-4.52,0.0
W5607,INISHTRAHULL,55.6,-7.0,0.0
E3234,ISRAEL,31.85,34.27,0.0
E3613,TUNIS,36.18,12.57,0.0
E3719,ION.MEER,37.37,19.17,0.0
E3901,BALEARES-SW,39.02,0.93,0.0
E4026,THRAKICO,40.25,26.0,0.0
E4229,SCHW.MEER1,41.87,28.85,0.0
E4513,GOLF-VENEDIG,45.0,13.0,0.0
E5307,OSTFR. KUESTE,53.75,7.0,0.0
E5411,KIELER BUCHT,54.52,10.72,0.0
E5512,FEHMARNBELT,54.6,11.3,0.0
E5618,SE-OSTSEE,56.18,17.83,0.0
E5824,RIGAI.MEERB.,57.75,23.5,0.0
E6104,UTVAR,61.0,4.0,0.0
A652,PADENSTEDT,54.03,9.92,15.0
E735,HATTENDORF,52.23,9.27,200.0
F863,HAENCHEN,51.72,14.27,69.0
G216,GROSSZIEGENFELD,50.02,11.17,480.0
G240,GERBRUNN,49.78,10.02,320.0
G259,SOELLITZ,49.53,12.23,550.0
G283,ROECKERSBUEHL,49.23,11.37,422.0
G309,SANDHARLANDEN,48.83,11.82,370.0
G333,HUELL,48.6,11.68,465.0
G355,FRANKENDORF,48.35,11.98,455.0
G378,OSTERSEEON,48.07,11.92,560.0
G407,DORNBURG,51.0,11.67,242.0
G422,SCHLOSSVIPPACH, KREI,51.1,11.15,174.0
H069,LADBERGEN,52.12,7.7,55.0
H419,DUISBURG-BAERL,51.52,6.7,25.0
H764,ROTHE FURTH,51.08,7.32,230.0
J739,BACHEM,49.5,6.7,220.0
K265,OCHTENDUNG,50.33,7.42,314.0
K480,LAUDERT,50.08,7.62,530.0
K598,DEXHEIM,49.85,8.32,202.0
K732,HAHNWEILER,49.58,7.23,536.0
K963,LUSTADT,49.25,8.28,116.0
L353,ALSFELD,50.75,9.25,304.0
L643,NIDDA-KLÄRANLAGE,50.4,8.98,132.0
L918,LORSCH-KLÄRANLAGE,49.67,8.57,92.0
N443,IRXLEBEN,52.18,11.45,122.0
O372,BURKAUER BERG,51.17,14.12,328.0
P166,THURNAU,50.02,11.35,498.0
P515,DONAUWOERTH-OSTERWE.,48.73,10.73,434.0
P866,SEEHAMMER SEE,47.87,11.85,690.0
Q290,WOLFSKOPF,49.18,10.05,440.0
X002,SWIS-PUNKT,50.17,6.67,300.0
X014,SWIS-PUNKT,50.42,9.75,700.0
X026,SCHOENERMARK,53.33,13.67,100.0
X038,SWIS-PUNKT,49.83,7.17,700.0
X051,RIESTEDT,51.5,11.35,500.0
X089,SWIS-PUNKT,47.62,7.6,500.0
X103,SWIS-PUNKT,52.38,13.52,50.0
X116,SWIS-PUNKT,50.52,2.62,28.0
X128,FRANKFURT-HAHN,49.95,7.27,548.0
X140,SWIS-PUNKT,51.23,6.5,41.0
X200,SWIS-PUNKT,47.57,9.98,900.0
X212,SWIS-PUNKT,47.75,12.35,1100.0
X224,SWIS-PUNKT,48.98,10.77,700.0
X236,SWIS-PUNKT,49.6,11.95,500.0
X248,SWIS-PUNKT,49.98,9.03,100.0
X260,SWIS-PUNKT,50.32,9.9,900.0
X272,SWIS-PUNKT,48.2,8.07,500.0
X284,SWIS-PUNKT,49.12,7.93,300.0
X296,SWIS-PUNKT,49.62,7.92,500.0
X308,SWIS-PUNKT,50.57,7.2,100.0
X320,SWIS-PUNKT,50.5,8.17,300.0
X333,SWIS-PUNKT,50.75,7.27,100.0
X345,SWIS-PUNKT,51.0,9.07,700.0
X357,SWIS-PUNKT,51.82,9.27,300.0
X369,SWIS-PUNKT,51.78,10.48,900.0
X381,SCHONACH,48.13,8.2,904.0
X397,UECKERMUENDE,53.73,14.07,1.0
X409,SWIS-PUNKT,49.9,12.08,900.0
X421,NEUGLOBSOW,53.15,13.03,62.0
X434,WITTENBERGE,53.0,11.77,22.0
X446,SWIS-PUNKT,50.63,11.6,500.0
X458,SWIS-PUNKT,51.23,11.92,100.0
X470,SWIS-PUNKT,52.58,11.08,100.0
X482,GNOIEN,53.97,12.7,19.0
Z928,SCHROEDELSTEIN,47.67,11.52,1485.0
F9707,SOUTHEND,51.57,0.7,15.0
L138,NAUMBURG-ALTENSTAEDT,51.27,9.2,304.0
M879,REMPTENDORF,50.53,11.67,495.0
Q278,GAILDORF-HAEGENAU,49.02,9.73,351.0
Q285,VELLBERG-KLEINALTDOR,49.12,9.9,396.0
01488,OSLO/FORNEBU,59.9,10.62,16.0
02418,KARLSTAD,59.37,13.47,46.0
02550,JONKOPING,57.77,14.08,226.0
02670,KALMAR,56.68,16.3,6.0
03044,ALTNAHARRA,58.28,-4.43,81.0
03171,LEUCHARS,56.38,-2.87,12.0
03354,NOTTINGHAM/MET,53.0,-1.25,117.0
03590,WATTISHAM,52.12,0.97,87.0
03797,MANSTON,51.35,1.35,44.0
03953,VALENTIA,51.93,-10.23,25.0
06070,TIRSTRUP,56.3,10.62,25.0
06270,LEEUWARDEN,53.22,5.77,1.0
06407,OOSTENDE,51.2,2.87,4.0
06590,LUXEMBURG,49.62,6.22,376.0
06623,SALEN-REUTENEN,47.65,9.02,718.0
06639,NAPF,47.0,7.93,1406.0
06664,RECKENHOLZ,47.43,8.52,444.0
06682,ELM,46.92,9.18,958.0
06710,COURTELARY,47.17,7.08,695.0
06745,ULRICHEN,46.5,8.32,1346.0
06780,WEISSFLUHJOCH,46.83,9.82,2691.0
06795,PIZ MARTEGNAS,46.58,9.53,2670.0
07037,ROUEN,49.38,1.18,157.0
07133,POINTE DU ROC,48.83,-1.62,37.0
07201,QUIMPER,47.97,-4.17,92.0
07315,LA ROCHELLE,46.15,-1.15,4.0
07497,BOURG-ST-M,45.62,6.77,865.0
07635,CARCASSONNE,43.22,2.32,126.0
07761,AJACCIO,41.92,8.8,6.0
08029,SAN SEBASTIAN/FUENT.,43.35,-1.8,5.0
08184,GERONA/COST.BRAVA,41.9,2.77,143.0
08383,HUELVA,37.28,-6.92,19.0
08567,VILA REAL,41.27,-7.72,561.0
10035,SCHLESWIG,54.53,9.55,47.0
10129,BREMERHAVEN,53.53,8.58,7.0
10162,SCHWERIN,53.63,11.38,59.0
10249,BOIZENBURG,53.38,10.68,45.0
10312,BELM,52.32,8.17,103.0
10365,GENTHIN,52.38,12.17,35.0
10427,K.ASTEN,51.18,8.48,839.0
10460,ARTERN,51.37,11.28,164.0
10502,NOERVENICH,50.83,6.67,118.0
10552,SCHMUECKE,50.65,10.77,937.0
10591,LICHTENHAIN,50.93,14.22,321.0
10655,WUERZBURG,49.77,9.97,268.0
10731,RHEINSTETTEN,48.97,8.32,118.0
10776,REGENSBURG,49.03,12.1,365.0
10837,LAUPHEIM,48.22,9.92,538.0
10908,FELDBERG/S.,47.88,8.0,1486.0
11012,KREMSMUENSTER,48.07,14.13,382.0
11055,SCHAERDING,48.47,13.43,314.0
11127,OBERGURGL,46.87,11.02,1941.0
11165,ZELTWEG,47.2,14.75,677.0
11232,FEISTRITZ,46.57,14.77,532.0
11312,GALTUER,46.97,10.18,1584.0
11450,PLZEN (AUT. STATION),49.75,13.35,331.0
11643,PEC POD SNEZKOU,50.68,15.73,816.0
11787,LYSA HORA/RIESENGEB.,49.55,18.45,1324.0
11934,POPRAD/T.,49.07,20.25,694.0
12200,SWINEMUENDE,53.92,14.23,5.0
12345,KOLO,52.2,18.67,115.0
12488,KOZIENICE,51.57,21.53,123.0
12585,SANDOMIERZ,50.7,21.72,217.0
12846,AGARD,47.18,18.62,105.0
13269,VALJEVO,44.32,19.92,176.0
13586,SKOPJE,41.97,21.65,238.0
14444,SPLIT/RESNIK,43.53,16.3,21.0
14648,MOSTAR,43.35,17.8,99.0
15260,SIBIU,45.8,24.15,443.0
16022,PAGANELLA,46.15,11.03,2125.0
16105,VENEDIG,45.5,12.33,2.0
16242,ROM,41.8,12.23,2.0
16405,PALERMO,38.18,13.1,21.0
16622,THESSALONIKI,40.52,22.97,8.0
16685,KEFALHNIA,38.12,20.5,19.0
16754,HERAKLION,35.33,25.18,37.0
17070,BOLU,40.73,31.6,743.0
17290,BODRUM,37.03,27.43,26.0
26554,VERKHNEDVINSK,55.82,27.93,132.0
33345,KIEW,50.4,30.45,179.0
40270,AMMAN,31.98,35.98,778.0
60155,CASABLANCA,33.57,-7.67,62.0
60571,BECHAR,31.5,-2.25,809.0
A345,GROSS WITTENSEE,54.4,9.77,15.0
A752,WEDDELBROOK,53.9,9.83,18.0
B320,GERSDORF,54.08,11.73,52.0
B629,GOLDENBOW,53.53,11.77,52.0
C720,HAMBURG-NEUWIEDENTH.,53.48,9.9,3.0
E099,MITTELNKIRCHEN-HOHEN,53.55,9.62,1.0
E254,WORPSWEDE-HUETTENBUS,53.28,8.98,7.0
E445,SCHWARME,52.92,9.05,12.0
E651,KIRCHDORF, KREIS DIE,52.6,8.85,34.0
E738,RINTELN-VOLKSEN,52.13,9.12,212.0
E818,BEVERN,51.85,9.5,110.0
E955,LAUTERBERG,BAD-BARTO,51.6,10.47,305.0
F191,PASSOW,53.13,14.12,12.0
F448,STAAKEN,52.53,13.12,31.0
F695,COSCHEN,52.02,14.73,40.0
H009,WESTERKAPPELN,52.28,7.87,92.0
H212,DAHLEM-SCHMIDTHEIM,50.42,6.57,573.0
H376,SALZKOTTEN,51.72,8.58,93.0
H512,NETTETAL-HUELST,51.3,6.2,45.0
H612,REICHSHOF-ECKENHAGEN,50.98,7.68,348.0
H744,KOELN-STAMMHEIM,50.98,6.98,43.0
H932,WEILERSWIST-LOMMERSU,50.72,6.78,146.0
K038,BAD NEUENAHR-AHRWEIL,50.53,7.08,111.0
K230,RODDER,50.4,6.87,512.0
K322,KIRCHWEILER,50.23,6.75,570.0
K446,WITTLICH,49.97,6.93,147.0
K568,BAD KREUZNACH,49.85,7.85,100.0
K744,KUSEL (KLAERANLAGE),49.53,7.43,215.0
K925,PIRMASENS,49.18,7.6,390.0
L125,WALDECK-ALRAFT,51.23,8.97,300.0
L292,ESCHWEGE-ELTMANNSHAU,51.18,9.98,250.0
L505,WALDBRUNN-LAHR,50.52,8.13,280.0
L652,GEDERN-SCHOENHAUSEN,50.4,9.22,407.0
L819,WIESBADEN-BIEBRICH,50.03,8.23,90.0
L947,MICHELSTADT,49.68,9.02,204.0
M357,ALPERSTEDT,51.1,11.05,158.0
M620,KLEINER INSELBERG,50.85,10.48,732.0
M834,SCHLEUSINGEN,50.52,10.77,399.0
N182,SCHWARZHOLZ,52.75,11.98,30.0
N440,SCHACKENSLEBEN,52.2,11.42,95.0
N632,MEHRINGEN/ASL,51.73,11.52,107.0
O039,SCHOENWOELKAU-BRINNI,51.52,12.43,101.0
O384,KUBSCHUETZ,KR.BAUTZ.,51.17,14.5,232.0
O625,FRANKENBERG-ALTENHAI,50.88,13.03,326.0
O888,RASCHAU,50.52,12.83,507.0
P038,SULZDORF AN DER LEDE,50.23,10.57,332.0
P086,HELMBRECHTS,50.23,11.7,650.0
P131,SCHONUNGEN-MAINBERG,50.07,10.3,304.0
P179,CREUSSEN-BUEHL,49.83,11.62,450.0
P232,KITZINGEN,49.73,10.18,188.0
P271,PEGNITZ (KLAERANLAGE,49.73,11.57,420.0
P310,WINDSHEIM, BAD,49.52,10.42,310.0
P354,AMBERG-UNTERAMMERSR.,49.47,11.85,383.0
P380,RODING-WETTERFELD,49.22,12.53,373.0
P433,BERCHING,49.12,11.43,403.0
P472,PRACKENBACH,49.12,12.82,588.0
P542,MARKT ERLBACH-MOSBA.,49.53,10.63,362.0
P585,OSTERHOFEN-THUNDORF,48.77,13.02,310.0
P629,ALTOMUENSTER-MAISBRU,48.42,11.32,510.0
P666,VILSBIBURG,48.45,12.33,461.0
P697,UNTERGRIESBACH-SCHAI,48.6,13.65,495.0
P769,FINSING (KRAFTWERK),48.22,11.8,498.0
P818,KRAFTISRIED,47.77,10.47,831.0
P862,FELDKIRCHEN-WESTERHA,47.93,11.9,517.0
P904,SIEGSDORF-HOELL,47.83,12.65,721.0
P931,BERNBEUREN-PRACHTSRI,47.73,10.73,936.0
P956,JACHENAU-TANNERN,47.63,11.52,720.0
P975,KIEFERSFELDEN,47.62,12.17,518.0
P995,RAMSAU-SCHWARZECK/SC,47.63,12.9,1088.0
Q062,FREUDENBERG/MAIN-BOX,49.77,9.42,193.0
Q242,OBERSULM-WILLSBACH,49.13,9.35,230.0
Q351,GROSSENLACH MANNENW.,49.02,9.6,523.0
Q414,FORBACH (LUBW),48.67,8.35,304.0
Q541,NAGOLD,48.57,8.72,380.0
Q663,HOHENSTEIN-BERNLOCH,48.37,9.33,740.0
Q733,ROTTWEIL,48.18,8.63,588.0
Q811,BUCHENBACH,47.97,8.0,445.0
Q902,MALSBURG-MARZELL,47.77,7.72,708.0
Q978,FRIEDRICHSHFN UNTER.,47.68,9.43,459.0
Z912,TEGELBERG,47.57,10.78,1710.0
Z937,KAMPENWAND,47.75,12.35,1520.0
06678,BISCHOFSZELL,47.5,9.23,470.0
10929,KONSTANZ,47.68,9.18,443.0
16239,ROMA-CIAMPINO,41.78,12.58,130.0
26657,DOKSICY,54.88,27.75,135.0
27402,TVER,56.88,35.87,130.0
33415,TERNOPOL,49.53,25.68,148.0
33829,TIRASPOL,46.87,29.6,128.0
16643,AKTIO AIRPORT,38.92,20.77,3.0
01475,SKIEN,59.18,9.57,41.0
02527,GOTEBORG/LANDVETTER,57.67,12.5,164.0
03154,DUMFRIES,55.05,-3.65,16.0
03496,HEMSBY,52.68,1.68,13.0
03903,ST. ANGELO,54.4,-7.65,47.0
06080,ESBJERG,55.52,8.55,29.0
07070,REIMS,49.3,4.03,91.0
08390,SEVILLA,37.37,-6.0,8.0
10124,LEUCHTTURM A. WESER,53.85,8.12,32.0
10277,NEUGLOBSOW,53.15,13.03,62.0
10401,BRUEGGEN,51.2,6.13,73.0
10492,COTTBUS/FLUGPLATZ,51.77,14.28,68.0
10546,KALTENNORDHEIM,50.63,10.15,487.0
10722,KARLSR./BADEN-BADEN,48.78,8.08,124.0
11015,FREISTADT,48.5,14.5,548.0
11176,KAPFENBERG,47.47,15.33,515.0
12825,PAPA,47.2,17.5,145.0
14655,GACKO,43.17,18.55,940.0
16146,PUNTA MARINA,44.45,12.3,2.0
16666,MYKONOS,37.43,25.35,123.0
26502,PALANGA,55.97,21.1,10.0
33994,AYVOVE,44.73,33.65,41.0
40253,BAQURA,32.63,35.62,-170.0
40296,GHOR EL SAFI,31.03,35.47,-350.0
F9505,HOHENECK UMSPWK.,48.92,9.2,275.0
F9517,SOONWALD WEST 2,49.98,7.78,294.0
F9529,VILLE OST 2,50.93,6.82,60.0
K1091,DOERPEN,52.98,7.37,6.0
K1484,GLUECKSTADT,53.8,9.43,2.0
K1586,WILLINGEN/UPLAND,51.3,8.6,580.0
K2269,BAD BERTRICH,50.07,7.02,160.0
K2596,DARMSTADT,49.88,8.68,162.0
K2671,LOHR,50.02,9.62,161.0
K2721,MURRHARDT,48.97,9.57,344.0
K2767,TITISEE-NEUSTADT,47.9,8.17,860.0
K2920,HERRENBERG,48.6,8.88,431.0
K3822,EUTIN,54.13,10.58,50.0
K4054,SCHWEINFURT,50.07,10.22,240.0
K4108,EICHSTAETT,48.9,11.17,397.0
K4185,MAINBURG,48.65,11.8,413.0
K4514,FREYUNG,48.8,13.55,645.0
N0121,MONSCHAU,50.53,6.25,542.0
N0224,AHLEN,51.78,7.87,70.0
N0352,GERSTETTEN-DETTINGEN,48.6,10.12,582.0
N0505,FUESSEN-WEISSENSEE,47.58,10.63,790.0
N0680,GERMERSHEIM,49.22,8.38,106.0
N1012,KALBACH,50.42,9.67,405.0
N1122,NEUSTADT/WN-ALTENST.,49.72,12.17,400.0
N1323,FRANKFURT/ODER,52.37,14.53,49.0
N1461,SANKT ENGLMAR,49.0,12.83,810.0
N2046,MURNAU,47.67,11.23,622.0
N2202,LALLING,48.83,13.1,353.0
N2274,SANKT OSWALD,48.88,13.42,754.0
N2412,WUSTERHUSEN,54.12,13.62,31.0
N2614,PFARRKIRCHEN,48.43,12.93,410.0
N3007,SCHWARZENBACH/SAALE,50.2,11.92,532.0
N3206,SULINGEN,52.68,8.82,48.0
N3420,FORCHHEIM/OFR.,49.72,11.05,257.0
N3778,BURGSINN,50.15,9.65,235.0
N4161,GOSLAR,51.92,10.43,266.0
N4377,ANNABERG_BUCHHOLZ,50.58,13.0,630.0
N4854,SCHOENINGEN,52.13,10.95,170.0
N5346,ILMENAU,50.68,10.9,498.0
N5939,ADORF,50.32,12.27,450.0
N6257,BORNA,51.15,12.47,135.0
N7040,PRUEM,50.22,6.42,465.0
N7332,SAARBURG,49.62,6.55,180.0
N7740,FRIESACK,52.77,12.58,29.0
N8261,HITZACKER,53.15,11.03,28.0
N8421,BAD BEVENSEN,53.08,10.57,32.0
N8634,WARSTEIN,51.45,8.35,330.0
N8864,ENNEPETAL-MILSPE,51.3,7.32,280.0
N9228,BAD SALZUNGEN,50.8,10.22,290.0
N9607,WESEL-FLUEREN,51.7,6.58,25.0
P0006,BILLERBECK,51.97,7.28,127.0
P0018,MELIBOCUS,49.73,8.65,517.0
P0030,OBERHAUSEN-STERKRADE,51.53,6.87,54.0
P0042,SCHWEDT/LUB,53.05,14.3,6.0
P0054,BORNUM AM HARZ,51.92,10.17,170.0
P0066,TUERNITZ,47.95,15.5,400.0
P0078,CORTINA D'AMPEZZO,46.55,12.13,1300.0
P0091,SIMPLONPASS,46.25,8.05,2000.0
P0103,OF-POST D3,48.7,12.5,462.0
P0115,LOIBLPASS,46.42,14.28,1500.0
P0128,PODELZIG,52.47,14.52,20.0
P0140,RAPSHAGEN, NT,53.22,12.23,70.0
P0152,PLOEN,54.17,10.38,22.0
P0165,ISEO,45.65,10.05,100.0
P0178,BIEBESHEIM,49.78,8.47,90.0
P0190,NASSAU/RHL.-PFALZ,50.32,7.78,90.0
P0202,GLINDE,53.53,10.22,30.0
P0214,TROISDORF,50.83,7.17,50.0
P0226,BERGISCH GLADBACH,50.98,7.12,162.0
P0241,SAINT TROPEZ,43.27,6.65,20.0
P0253,LOSSBURG,48.72,8.75,347.0
P0265,BUCH AM AMMERSEE,48.05,11.13,550.0
P0280,VIERHERRENBORN,49.6,6.65,449.0
P0293,POESSNECK,50.67,11.55,250.0
P0307,HOERNLE,47.63,11.07,1538.0
P0332,BISDORF,54.47,11.17,9.0
P0348,MALENTE,54.17,10.55,15.0
P0360,WILLMERSDORF,52.67,13.68,67.0
P0372,MORZINE,46.18,6.7,1000.0
P0385,DAMUELS,47.27,9.87,1428.0
P0397,BRANAES,60.68,12.93,152.0
P0410,BICKENDORF,50.03,6.5,389.0
P0425,SPAIN_NEW_04,40.5,-6.5,920.0
P0437,CALAIS,50.95,1.82,3.0
P0451,GOETA KANAL,58.6,15.9,74.0
P0463,TOERREBODA,58.8,14.4,126.0
P0475,NORRA SKANE,56.1,13.6,131.0
P0487,SDL.FLUSS LITANI,33.13,35.4,800.0
P0499,SEDRUN,46.68,8.77,1400.0
P0511,SCHEID_2,50.33,6.42,560.0
P0523,BRIE-CHAMPNIERS,45.72,0.22,122.0
P0535,IMATRA,61.17,28.75,67.0
P0547,ADRA,36.75,-3.02,8.0
P0559,OBER-BEERBACH,49.77,8.68,340.0
P0571,ATHINAI-ELEFTHERIOS,37.93,23.93,94.0
P0604,HAGEN-HOHENLIMBURG,51.35,7.57,131.0
P0616,SUEDLOHN,51.95,6.9,52.0
P0629,TEMMING,52.02,7.42,72.0
W3811,WESTL.LISSABON,38.02,-11.33,0.0
W5108,SUEDL.IRL.,50.87,-7.73,0.0
W5611,NWL.IRLAND,55.93,-10.88,0.0
W5906,NDL.HEBRIDEN,58.73,-5.58,0.0
E3328,SE-KRITIKO,33.0,27.52,0.0
E3623,KITHIRASEE,35.7,22.52,0.0
E3721,S-IONIANSEA,37.17,21.03,0.0
E3904,BALEAREN,39.43,3.67,0.0
E4028,MARMARA,40.48,28.48,0.0
E4236,SCHW.MEER7,42.0,36.0,0.0
E4514,SDL.PULA,44.52,14.0,0.0
E5311,LUEB. BUCHT,54.1,11.2,0.0
E5412,WESTL.OSTS.,54.48,12.38,0.0
E5513,NDL.RUEGEN,55.0,13.4,0.0
E5620,WESTL.KLAIPEDA,56.0,20.0,0.0
E5902,VIKING-S,58.75,1.52,0.0
E6118,BOTTENSEE-SW,61.0,17.6,0.0
B335,KAVELSDORF,54.0,12.22,40.0
E777,WATENSTEDT,52.15,10.37,103.0
F945,RUHLAND,51.47,13.87,110.0
G219,WIESENGIECH,49.97,10.98,280.0
G241,HELMSTADT,49.75,9.72,280.0
G261,KAUBENHEIM,49.53,10.47,300.0
G285,POESING,49.23,12.57,380.0
G313,UTTENKOFEN,48.82,12.85,323.0
G334,FRAUENRIEDHAUSEN,48.6,10.4,440.0
G357,FRIEDING,48.33,12.83,480.0
G384,NILLING,48.03,12.82,390.0
G408,EHRENHAIN,50.95,12.52,220.0
G423,STRAUSSFURT, KREIS S,51.17,10.97,186.0
H075,HABICHTSWALD,52.23,7.87,130.0
H423,ALTENESSEN,51.5,6.97,46.0
H775,ECKENHAGEN,50.97,7.72,445.0
J907,GOLDENE BREMM,49.22,6.97,224.0
K266,MOSELTALBRUECKE,50.32,7.48,204.0
K481,WAHLBACH,50.0,7.58,436.0
K610,AVELSBACH,49.75,6.7,248.0
K748,MARTINSHÖHE,49.37,7.47,411.0
K996,SCHAIDT,49.05,8.08,136.0
L379,EICHHOF,50.83,9.68,200.0
L648,ALTENSTADT,50.32,8.93,184.0
L959,RHEINBR.MANNHEIM,49.53,8.42,100.0
N520,PABSTORF,52.03,10.97,112.0
O451,DRESDEN-PILLNITZ,51.0,13.88,115.0
P235,BUERGSTADT,49.7,9.28,210.0
P533,KOESCHINGER FORST,48.85,11.45,450.0
P869,DETTENDORF,47.82,12.0,500.0
Q348,ENGELBERG,48.8,9.03,450.0
X003,SWIS-PUNKT,50.17,6.33,500.0
X015,SWIS-PUNKT,50.25,8.33,500.0
X027,SWIS-PUNKT,49.5,12.63,700.0
X039,SWIS-PUNKT,50.67,10.75,700.0
X052,SWIS-PUNKT,50.08,8.0,700.0
X090,SWIS-PUNKT,49.67,10.5,500.0
X104,BERLIN-TEGEL,52.57,13.28,40.0
X117,SWIS-PUNKT,50.98,12.5,209.0
X129,SWIS-PUNKT,53.53,9.83,3.0
X141,SWIS-PUNKT,51.6,6.13,35.0
X201,SWIS-PUNKT,47.35,10.33,900.0
X213,KOENIGSEE-BERG,47.53,13.0,1100.0
X225,SWIS-PUNKT,49.03,11.07,700.0
X237,SWIS-PUNKT,49.73,12.08,500.0
X249,SWIS-PUNKT,50.0,9.25,100.0
X261,SWIS-PUNKT,50.37,9.95,900.0
X273,SWIS-PUNKT,47.83,7.78,500.0
X285,SWIS-PUNKT,49.28,8.03,500.0
X297,SWIS-PUNKT,47.75,7.6,300.0
X309,SWIS-PUNKT,50.28,7.68,300.0
X321,SWIS-PUNKT,50.83,8.65,300.0
X334,SWIS-PUNKT,50.93,7.42,300.0
X346,SWIS-PUNKT,50.25,9.6,300.0
X358,SWIS-PUNKT,51.8,9.83,100.0
X370,SWIS-PUNKT,51.73,10.42,900.0
X382,TITISEE-NEUSTADT,47.9,8.17,860.0
X398,WAREN(MUERITZ),53.52,12.67,73.0
X410,SWIS-PUNKT,50.02,11.87,900.0
X422,SWIS-PUNKT,48.97,12.83,700.0
X435,SCHOENBORN,51.6,13.5,115.0
X447,SWIS-PUNKT,50.63,12.05,500.0
X459,SWIS-PUNKT,51.15,12.12,100.0
X471,SWIS-PUNKT,51.33,12.93,100.0
X483,HOEXTER,51.78,9.4,93.0
Z936,MOESLARNALM,47.75,12.35,1450.0
F9708,LEEDS BRADFORD,53.87,-1.67,208.0
01492,OSLO-BLINDERN,59.93,10.72,94.0
02458,UPPSALA,59.88,17.6,21.0
02559,GLADHAMMAR,57.72,16.45,35.0
02944,TAMPERE,61.42,23.58,112.0
03063,AVIEMORE,57.22,-3.83,228.0
03204,ISLE OF MAN/ROUAL.,54.08,-4.63,17.0
03377,WADDINGTON,53.17,0.52,68.0
03604,MILFORD HAVEN,51.72,-5.05,44.0
03803,SCILLY,49.92,-6.3,31.0
03955,CORK AIRPORT,51.85,-8.48,153.0
06104,BILLUND,55.73,9.15,70.0
06275,DEELEN,52.07,5.88,48.0
06431,GENT,51.18,3.82,10.0
06601,BASEL,47.53,7.58,316.0
06624,HALLAU,47.7,8.47,419.0
06641,MOEHLIN,47.57,7.88,344.0
06666,LEIBSTADT (KKW),47.6,8.18,341.0
06683,SCHMERIKON,47.22,8.93,408.0
06711,PULLY,46.52,6.67,461.0
06748,ZERMATT,46.03,7.75,1638.0
06782,DISENTIS,46.7,8.85,1190.0
06796,STA. MARIA VAL MUEST,46.6,10.43,1383.0
07038,EVREUX,49.02,1.22,132.0
07139,ALENCON,48.43,0.1,144.0
07205,LANN BIHOUE,47.77,-3.45,42.0
07335,POITIERS,46.58,0.3,120.0
07510,BORDEAUX,44.83,-0.7,49.0
07638,BEZIER-VIAS,43.3,3.4,16.0
07770,PERTUSATO / CORSICA,41.37,9.18,105.0
08042,SANTIAGO,42.9,-8.43,370.0
08202,SALAMANCA/MATACAN,40.95,-5.5,793.0
08391,SEVILLA/SAN PABLO,37.42,-5.88,34.0
08571,PORTALEGRE,39.28,-7.42,467.0
10037,SCHLESWIG-JAGEL,54.47,9.52,22.0
10130,ELPERSBUETTEL,54.07,9.02,3.0
10168,GOLDBERG,53.62,12.1,58.0
10253,LUECHOW,52.97,11.13,17.0
10315,MUENSTER/OSNABR.,52.13,7.7,48.0
10368,WIESENBURG,52.12,12.47,187.0
10430,BAD LIPPSPRINGE,51.78,8.83,157.0
10469,LEIPZIG/SCHKEUDITZ,51.42,12.23,141.0
10506,NUERBURG-BARWEILER,50.37,6.87,485.0
10554,ERFURT,50.98,10.97,315.0
10609,TRIER,49.75,6.67,265.0
10658,KISSINGEN,50.2,10.08,262.0
10733,WAIBSTADT,49.28,8.92,237.0
10777,GELBELSEE,48.95,11.43,539.0
10850,HARBURG,48.78,10.72,502.0
10945,LEUTKIRCH-HERLAZHFN.,47.8,10.03,672.0
11018,AMSTETTEN,48.12,14.9,266.0
11060,LINZ,48.3,14.28,262.0
11130,KUFSTEIN,47.58,12.17,493.0
11170,LUNZ,47.85,15.07,614.0
11240,GRAZ FL.,47.0,15.43,340.0
11314,REUTTE AUTOM.,47.5,10.72,842.0
11457,CHURANOV,49.07,13.62,1122.0
11652,PARDUBICE,50.02,15.73,225.0
11816,BRATISLAVA,48.17,17.2,132.0
11938,TELGART,48.85,20.18,901.0
12205,STETTIN,53.4,14.62,1.0
12360,PLOCK,52.58,19.73,106.0
12495,LUBLIN RADAWIEC,51.22,22.4,238.0
12600,BIELSKO-BIALA,49.8,19.0,398.0
12882,DEBRECEN,47.48,21.6,110.0
13272,BEOGRAD/SURCIN,44.82,20.28,96.0
13615,TIRANA,41.33,19.78,89.0
14445,SPLIT/MARJAN,43.52,16.43,122.0
14650,IVAN SEDLO,43.77,18.03,970.0
15302,PREDEAL,45.52,25.58,1090.0
16033,DOBBIACO,46.73,12.22,1222.0
16110,TRIEST,45.65,13.75,8.0
16244,FROSINONE,41.63,13.3,180.0
16420,MESSINA,38.2,15.55,59.0
16624,CHRYSOUPOLI,40.98,24.6,5.0
16706,CHIOS,38.33,26.13,5.0
16759,TYMBAKION,35.0,24.75,7.0
17090,SIVAS,39.75,37.02,1285.0
17295,MUGLA/DALAMAN,36.7,28.78,7.0
26629,KAUNAS POCIUNAI,54.88,23.83,76.0
33526,IVANO-FRANKIVSK,48.93,24.7,275.0
40272,AMMAN/QUENN ALIA,31.67,35.97,721.0
60156,CASABLANCA/MOHAMED,33.37,-7.58,200.0
60590,EL-GOLEA,30.57,2.87,397.0
A351,ERFDE,54.3,9.32,18.0
A762,WITTENBORN,53.92,10.23,38.0
B334,GROSS LUESEWITZ,54.07,12.33,40.0
B670,FRIEDLAND,53.67,13.53,22.0
E006,BORKUM-SUEDERSTRASSE,53.58,6.67,12.0
E103,NORDEN-LEYBUCHTPOLDE,53.5,7.12,1.0
E277,KOENIGSMOOR,53.23,9.65,40.0
E451,VERDEN-DAUELSEN,52.97,9.23,21.0
E652,NIENBURG,52.67,9.22,25.0
E739,HAMELN-HASTENBECK,52.08,9.42,77.0
E835,EIMEN-VORWOHLE,51.88,9.73,265.0
E970,DRANSFELD-OSSENFELD,51.53,9.8,317.0
F199,BERKHOLZ-MEYENBURG,53.03,14.23,14.0
F451,AHRENSFELDE,52.58,13.57,60.0
F707,LANGENLIPSDORF,51.92,13.08,91.0
H012,RAHDEN-VARL,52.45,8.58,41.0
H235,REKEN-GROSS REKEN,51.82,7.08,59.0
H377,LIPPSTADT-BOEKENFOER,51.63,8.38,92.0
H522,TOENISVORST,51.28,6.43,37.0
H635,DORMAGEN-ZONS,51.12,6.85,36.0
H755,OVERATH-BOEKE,50.97,7.28,221.0
H981,KALL-SISTIG,50.5,6.53,505.0
K057,HUEMMERICH,50.57,7.48,328.0
K240,KALTENBORN, HOHE ACH,50.38,6.98,570.0
K326,OBERSTADTFELD,50.17,6.77,421.0
K463,BLANKENRATH,50.03,7.3,417.0
K584,MAINZ (ZDF),49.97,8.22,195.0
K747,HENSCHTAL,49.47,7.42,250.0
K931,HORTENKOPF,49.27,7.83,606.0
L130,AROLSEN-LANDAU,51.33,9.08,265.0
L299,HERLESHAUSEN-ARCHFEL,51.03,10.15,380.0
L511,LOEHNBERG-OBERSH.,50.57,8.23,230.0
L678,SCHLÜCHTERN-HEROLZ,50.33,9.55,230.0
L821,WIESBADEN-AURINGEN,50.13,8.32,263.0
L979,BIRKENAU,49.57,8.7,172.0
M405,MOORGRUND-GRAEFENDOR,50.83,10.25,283.0
M640,DREI GLEICHEN-MUEHLB,50.87,10.82,286.0
M846,KATZHUETTE,50.55,11.03,450.0
N199,SCHOLLENE,52.67,12.18,29.0
N463,KOENIGSBORN,52.13,11.78,52.0
N652,KOETHEN (ANHALT),51.75,12.02,76.0
O057,KLITSCHEN BEI TORGAU,51.52,12.92,85.0
O457,DRESDEN-STREHLEN,51.02,13.77,119.0
O660,DIPPOLDISWALDE-REIN.,50.92,13.72,365.0
O950,WEISCHLITZ-HEINERSGR,50.38,12.0,517.0
P041,RODACH (KLAERANLAGE),50.33,10.78,300.0
P088,STAMMBACH-QUERENBACH,50.15,11.73,598.0
P137,KOLITZHEIM,49.92,10.23,230.0
P182,FICHTELBERG/OBERFRA.,49.98,11.83,657.0
P233,SCHWARZACH/MAIN (KLA,49.8,10.22,188.0
P280,NEUSTADT AM KULM,49.82,11.87,452.0
P317,WEIHENZELL-GRUEB,49.33,10.62,474.0
P355,ROELLBACH,49.77,9.25,239.0
P382,TREFFELSTEIN-WITZELS,49.4,12.62,470.0
P441,PARSBERG/OBERPFALZ,49.15,11.68,549.0
P477,SANKT ENGLMAR,49.0,12.82,810.0
P546,SIEGENBURG (KLAERANL,48.77,11.83,380.0
P586,SALDENBURG-ENTSCHENR,48.78,13.32,456.0
P637,SCHEYERN,48.5,11.45,481.0
P668,GANGKOFEN (KLAERANLA,48.43,12.57,434.0
P699,UNTERGRIESBACH-GLOTZ,48.57,13.75,575.0
P771,DORFEN (KLAERANLAGE),48.27,12.17,430.0
P821,BUCHLOE,48.03,10.73,626.0
P870,IRSCHENBERG-KASTHUB,47.82,11.87,715.0
P905,WEILER-SIMMERBERG (K,47.57,9.9,600.0
P934,HALBLECH-TRAUCHGAU,47.65,10.82,780.0
P957,LENGGRIES (SYLVENSTE,47.58,11.55,737.0
P979,SAMERBERG-GEISENKAM,47.78,12.22,687.0
P996,BERCHTESGADEN,47.63,13.02,600.0
Q066,LAUDA-KOENIGSHOFEN-H,49.55,9.63,324.0
Q261,WUESTENROT-OBERHEIMB,49.13,9.48,392.0
Q367,WELZHEIM (LUBW),48.87,9.63,470.0
Q424,ENZKLOESTERLE,48.67,8.47,600.0
Q554,ROTTENBURG-KIEBINGEN,48.47,8.97,360.0
Q671,MÜNSINGEN-APFELSTETT,48.38,9.48,750.0
Q738,VILLINGEN-SCHWENNING,48.05,8.47,720.0
Q813,BREITNAU,47.93,8.08,1001.0
Q903,KANDERN-GUPF,47.7,7.58,362.0
Q999,WANGEN/ALLGAEU-UNTER,47.72,9.87,666.0
Z917,OSTERFELDER,47.43,11.07,1800.0
Z940,RAUSCHBERG,47.73,12.68,1635.0
07593,BRIANCON,44.92,6.65,1328.0
11032,POYSDORF,48.67,16.63,202.0
26058,NARVA,59.38,28.12,30.0
26695,LEPEL,55.17,34.4,135.0
33019,PINSK,52.12,26.12,133.0
33466,MIRONOVKA,49.65,31.08,136.0
33883,KOMRAT,46.3,28.63,129.0
07150,PARIS-LE BOURGET,48.97,2.43,67.0
02566,MALILLA,57.4,15.82,95.0
03160,EDINBURGH,55.95,-3.35,41.0
03499,SM.KNOLL,52.72,2.3,5.0
03908,BALLYKELLY,55.07,-7.02,2.0
06147,VINDEBAEK KYST,54.88,12.18,3.0
07090,METZ,49.08,6.13,190.0
08485,MOTRIL/CLUB NAUTICO,36.72,-3.53,3.0
10125,WILHELMSHAVEN,53.5,8.05,5.0
10280,NEUBRANDENBURG,53.55,13.2,81.0
10403,MOENCHENGLADBACH,51.23,6.5,37.0
10493,PRESCHEN,51.67,14.63,100.0
10555,WEIMAR,50.98,11.32,264.0
10727,KARLSRUHE,49.03,8.37,112.0
11028,ST. POELTEN,48.2,15.62,282.0
11194,NEUSIEDL AM SEE,47.95,16.85,135.0
12839,BUDAPEST/FERIHEGY,47.43,19.27,151.0
14658,SOKOLAC,43.95,18.82,872.0
16147,FORLI,44.2,12.07,27.0
16689,PATRAS,38.25,21.73,1.0
26630,KAUNAS,54.97,24.08,78.0
40255,IRBID,32.55,35.85,619.0
40298,TAFILEH,30.78,35.72,1200.0
F9506,KÜHMOOS UMSPWK.,47.6,7.95,736.0
F9518,SOONWALD WEST 3,50.32,7.5,73.0
F9530,KUGELBERG O. / W. 1,49.22,8.83,240.0
K1115,GELSENKIRCHEN,51.5,7.1,44.0
K1489,BUCHHOLZ I.D. NORDH.,53.35,9.93,77.0
K1596,FRANKENBERG/EDER,51.05,8.82,290.0
K2270,DAUN,50.2,6.83,430.0
K2601,SIEGEN,50.87,8.02,263.0
K2679,BAD MERGENTHEIM,49.48,9.77,250.0
K2724,SCHWAEBISCH HALL,49.12,9.75,387.0
K2778,WALDSHUT,47.62,8.23,330.0
K2923,ROTTENBURG,48.48,8.95,342.0
K3854,BAD SEGEBERG,53.93,10.3,49.0
K4057,KITZINGEN,49.73,10.2,230.0
K4116,ALTOMUENSTER,48.38,11.25,502.0
K4204,JENA/STERNWARTE,50.93,11.58,155.0
K4529,WASSERBURG/INN,48.05,12.22,443.0
N0122,WANGEN/ALLGAEU,47.68,9.87,588.0
N0226,DUEREN,50.8,6.48,127.0
N0359,DISCHINGEN(EGAUWAS.),48.68,10.37,460.0
N0514,ANKUM,52.55,7.88,62.0
N0717,FRIESOYTHE,53.02,7.87,8.0
N1026,LOSSBURG,48.38,8.48,601.0
N1140,GEISLINGEN,48.63,9.85,443.0
N1325,REGEN,48.97,13.13,572.0
N1475,DEGGENDORF,48.83,12.95,313.0
N2048,KOCHEL,47.67,11.37,600.0
N2204,HEPPENHEIM,49.65,8.63,101.0
N2284,MAUTH,48.88,13.58,810.0
N2431,ASCHAU,47.77,12.33,620.0
N2622,PREROW A. DARSS,54.45,12.57,1.0
N3029,OERLINGHAUSEN,51.97,8.65,180.0
N3233,NEUMARKT OPF.,49.28,11.43,426.0
N3432,NEUSTADT/AISCH-UNTN.,49.58,10.52,320.0
N3833,WEIBERSBRUNN,49.9,9.4,470.0
N4162,ZWICKAU,50.68,12.47,347.0
N4414,HALBERSTADT,51.9,11.05,110.0
N5015,BARSINGHAUSEN,52.3,9.47,114.0
N5374,BINGEN-BUEDESHEIM,49.95,7.9,82.0
N6016,STEFFENBERG,50.85,8.47,338.0
N6259,WEILMUENSTER,50.43,8.38,210.0
N7060,ARZFELD,50.08,6.27,497.0
N7386,FUERSTENWALDE/SPREE,52.35,14.07,38.0
N7744,ALTENKIRCHEN,50.68,7.65,260.0
N8307,RADEVORMWALD,51.22,7.38,397.0
N8424,ERFTSTADT-BLIESHEIM,50.78,6.82,106.0
N8653,MOEHNE,51.5,8.07,232.0
N8867,SPROCKHOEVEL-HASSL.,51.33,7.28,270.0
N9320,DELBRUECK,51.77,8.55,97.0
N9608,RENA,61.18,11.37,255.0
P0007,TAUS,49.43,12.9,428.0
P0019,NIDDA,50.42,9.02,190.0
P0031,MUELHEIM/RUHR,51.43,6.88,38.0
P0043,SENFTENBERG/LUB,51.52,14.0,103.0
P0055,ALTOETTING,48.27,12.63,372.0
P0067,HOELLENSTEIN/YBBS,47.75,14.75,1000.0
P0079,PASO DI FALZAREGO,46.53,12.03,1850.0
P0092,MT. AUBERT,46.88,6.63,1339.0
P0104,OF-POST D4,50.4,10.7,441.0
P0116,NEUERN/NYRSKO,49.3,13.17,600.0
P0129,DELITZSCH-SELBEN,51.5,12.38,150.0
P0141,BASSENS,53.7,7.93,2.0
P0153,NORDW. FPN,55.0,6.45,0.0
P0166,LA SPEZIA,44.17,9.75,0.0
P0179,BRENSBACH,49.77,8.85,200.0
P0191,NASTAETTEN,50.2,7.87,268.0
P0203,WITTINGEN,52.72,10.73,78.0
P0215,MECKENHEIM/RHEINB.,50.62,7.03,180.0
P0227,KOENIGSWINTER,50.67,7.18,80.0
P0242,CERNOBBIO,45.83,9.08,400.0
P0254,KIRCHZARTEN,47.97,7.95,388.0
P0266,KUENZING,48.38,13.05,309.0
P0281,BERNAU/BRANDENBURG,52.67,13.57,67.0
P0295,NIESKY,51.28,14.85,165.0
